,City,Latitude,Longitude,Max Temp,Wind Speed,Cloudiness,Description,Humidity
0,hobart,-42.8794,147.3294,287.04,1.03,17.0,fog,100.0
1,punta arenas,-53.15,-70.9167,279.15,3.6,75.0,broken clouds,87.0
2,longyearbyen,78.2186,15.6401,266.15,5.14,20.0,few clouds,68.0
3,sorland,67.667,12.6934,279.15,2.06,0.0,clear sky,49.0
4,lisala,2.15,21.5167,296.63,0.52,99.0,overcast clouds,86.0
5,semnan,35.5729,53.3971,294.37,7.3,60.0,broken clouds,49.0
6,lebu,-37.6167,-73.65,288.87,2.89,90.0,overcast clouds,59.0
7,tuktoyaktuk,69.4541,-133.0374,268.15,3.09,90.0,mist,100.0
8,rikitea,-23.1203,-134.9692,297.94,4.65,55.0,broken clouds,72.0
9,saint-philippe,-21.3585,55.7679,297.15,4.63,90.0,light rain,78.0
10,isangel,-19.55,169.2667,297.43,3.37,4.0,clear sky,86.0
11,menongue,-14.6585,17.691,296.27,1.15,88.0,overcast clouds,53.0
12,sosva,59.1766,61.8558,278.2,5.64,53.0,broken clouds,60.0
13,saint anthony,45.0205,-93.218,286.48,4.63,20.0,few clouds,35.0
14,mataura,-46.1927,168.8643,280.93,0.89,22.0,few clouds,96.0
15,nikolskoye,59.7035,30.7861,279.82,4.0,75.0,light rain,87.0
16,katherine,-14.4667,132.2667,290.15,2.06,25.0,scattered clouds,77.0
17,albany,42.6001,-73.9662,287.59,0.89,26.0,scattered clouds,35.0
18,avarua,-21.2078,-159.775,296.15,6.17,90.0,light rain,94.0
19,jamestown,42.097,-79.2353,284.82,5.66,1.0,clear sky,43.0
20,los llanos de aridane,28.6585,-17.9182,294.15,4.63,75.0,broken clouds,64.0
21,lagoa,39.05,-27.9833,289.99,10.0,2.0,clear sky,89.0
22,kaitangata,-46.2817,169.8464,280.94,1.6,30.0,scattered clouds,94.0
23,mahebourg,-20.4081,57.7,295.15,1.67,75.0,moderate rain,100.0
24,kapaa,22.0752,-159.319,296.15,6.17,40.0,light rain,83.0
25,vaini,-21.2,-175.2,297.15,5.14,75.0,light rain,88.0
26,fairbanks,64.8378,-147.7164,281.15,2.28,1.0,clear sky,81.0
27,kasimov,54.9411,41.3953,287.04,7.05,99.0,overcast clouds,62.0
28,victoria,22.2855,114.1577,298.15,0.45,18.0,few clouds,85.0
29,katsuura,35.1333,140.3,289.15,2.06,75.0,broken clouds,88.0
30,bluff,-46.6,168.3333,280.93,0.89,11.0,few clouds,96.0
31,uarini,-2.99,-65.1083,304.15,3.09,40.0,scattered clouds,74.0
32,wuxue,29.8506,115.5525,290.33,0.94,100.0,light rain,95.0
33,cherskiy,68.75,161.3,265.71,1.62,100.0,overcast clouds,93.0
34,clyde river,70.4692,-68.5914,268.15,1.54,75.0,broken clouds,93.0
35,kununurra,-15.7667,128.7333,292.15,1.54,11.0,few clouds,94.0
36,diamantino,-14.4086,-56.4461,299.34,4.23,28.0,scattered clouds,53.0
37,tura,25.5198,90.2201,294.14,1.56,18.0,few clouds,87.0
38,mar del plata,-38.0023,-57.5575,289.26,6.17,40.0,scattered clouds,63.0
39,cidreira,-30.1811,-50.2056,290.65,5.84,100.0,overcast clouds,60.0
40,tasiilaq,65.6145,-37.6368,273.15,2.06,75.0,broken clouds,74.0
41,bredasdorp,-34.5322,20.0403,289.15,4.63,100.0,moderate rain,94.0
42,mokhsogollokh,61.4681,128.9203,273.8,2.52,100.0,overcast clouds,98.0
43,faanui,-16.4833,-151.75,300.56,5.62,16.0,few clouds,74.0
44,catuday,16.2923,119.8062,300.65,1.9,52.0,broken clouds,78.0
45,narsaq,60.9167,-46.05,281.15,5.66,40.0,scattered clouds,46.0
46,ushuaia,-54.8,-68.3,279.15,1.03,0.0,clear sky,75.0
47,salisbury,51.0693,-1.7957,285.93,6.17,20.0,few clouds,35.0
48,puerto ayora,-0.7393,-90.3518,300.15,7.72,20.0,few clouds,69.0
49,clermont,49.5,2.4167,282.15,3.6,90.0,overcast clouds,81.0
50,kodiak,57.79,-152.4072,275.15,1.94,75.0,broken clouds,80.0
51,aswan,24.0934,32.907,313.68,6.89,32.0,scattered clouds,7.0
52,hithadhoo,-0.6,73.0833,302.35,1.17,18.0,few clouds,64.0
53,tashara,55.5195,83.5094,289.64,3.31,100.0,overcast clouds,59.0
54,cape town,-33.9258,18.4232,288.71,7.72,75.0,light rain,94.0
55,honningsvag,70.9821,25.9704,276.15,4.63,40.0,scattered clouds,65.0
56,new norfolk,-42.7826,147.0587,287.04,1.2,26.0,scattered clouds,84.0
57,dingle,10.9995,122.6711,299.34,3.8,20.0,light rain,86.0
58,muros,42.7762,-9.0603,292.59,4.95,60.0,broken clouds,65.0
59,maragogi,-9.0122,-35.2225,301.11,3.2,71.0,broken clouds,69.0
60,berlevag,70.8578,29.0864,275.15,5.66,75.0,light snow,86.0
61,nijar,36.9665,-2.206,293.15,3.6,0.0,clear sky,77.0
62,butaritari,3.0707,172.7902,301.53,8.11,100.0,light rain,77.0
63,esperance,-33.8667,121.9,289.15,3.09,40.0,scattered clouds,88.0
64,sao gabriel da cachoeira,-0.1303,-67.0892,303.15,1.54,40.0,scattered clouds,74.0
65,nantucket,41.2835,-70.0995,289.15,6.69,1.0,clear sky,51.0
66,barrow,71.2906,-156.7887,257.15,2.57,40.0,scattered clouds,92.0
67,kieta,-6.2167,155.6333,299.58,1.84,49.0,light rain,83.0
68,port alfred,-33.5906,26.891,294.93,11.02,29.0,scattered clouds,84.0
69,padang,-0.9492,100.3543,298.47,2.78,100.0,overcast clouds,87.0
70,college,64.8569,-147.8028,281.15,3.6,75.0,broken clouds,53.0
71,bagotville,-28.9833,153.4167,290.15,3.6,23.0,few clouds,82.0
72,saldanha,-33.0117,17.9442,292.15,4.12,37.0,scattered clouds,68.0
73,terra santa,-2.1042,-56.4869,304.22,1.07,75.0,broken clouds,61.0
74,quang ngai,15.1167,108.8,298.15,1.18,31.0,scattered clouds,91.0
75,ishii,34.0667,134.4333,289.15,3.09,75.0,broken clouds,94.0
76,cine,37.6117,28.0614,295.15,9.26,0.0,clear sky,56.0
77,bodaybo,57.8506,114.1933,272.57,0.96,100.0,overcast clouds,95.0
78,bethel,41.3712,-73.414,289.15,6.17,1.0,clear sky,36.0
79,baykit,61.67,96.37,272.02,1.36,63.0,broken clouds,88.0
80,qaanaaq,77.484,-69.3632,271.86,1.88,100.0,overcast clouds,79.0
81,baloda bazar,21.6667,82.1667,306.86,3.39,78.0,broken clouds,29.0
82,east london,-33.0153,27.9116,293.15,3.6,0.0,clear sky,83.0
83,richards bay,-28.783,32.0377,293.5,2.8,28.0,scattered clouds,86.0
84,dikson,73.5069,80.5464,272.13,6.73,76.0,broken clouds,92.0
85,siderno,38.2779,16.302,293.15,5.66,75.0,light rain,60.0
86,manokwari,-0.8667,134.0833,299.29,1.47,84.0,broken clouds,80.0
87,maarianhamina,60.0973,19.9348,278.15,2.06,90.0,light rain,93.0
88,port elizabeth,-33.918,25.5701,291.15,3.6,0.0,clear sky,88.0
89,marsa matruh,31.3525,27.2453,297.15,5.14,0.0,clear sky,73.0
90,saint-ambroise,48.5501,-71.3324,279.82,6.17,100.0,light rain,93.0
91,beni mazar,28.4962,30.8029,310.89,5.98,5.0,clear sky,10.0
92,coos bay,43.3665,-124.2179,286.48,3.09,90.0,overcast clouds,82.0
93,upernavik,72.7868,-56.1549,271.96,5.26,34.0,scattered clouds,85.0
94,paamiut,61.994,-49.6678,275.91,1.3,99.0,overcast clouds,65.0
95,yellowknife,62.456,-114.3525,279.15,4.63,20.0,few clouds,42.0
96,saskylakh,71.9167,114.0833,263.21,1.51,97.0,overcast clouds,99.0
97,severo-kurilsk,50.6789,156.125,274.66,4.85,92.0,overcast clouds,97.0
98,srisailam,16.0833,78.8667,300.81,3.57,23.0,few clouds,58.0
99,bambous virieux,-20.3428,57.7575,296.48,1.64,75.0,moderate rain,100.0
100,lompoc,34.6391,-120.4579,285.15,1.3,6.0,clear sky,87.0
101,haicheng,40.8516,122.7475,285.45,7.53,52.0,light rain,77.0
102,atuona,-9.8,-139.0333,299.94,10.4,36.0,scattered clouds,71.0
103,kasangulu,-4.5911,15.1708,304.15,1.54,20.0,light rain,62.0
104,waw,7.7029,27.9953,300.55,3.13,72.0,moderate rain,64.0
105,surt,31.2089,16.5887,296.0,8.92,70.0,broken clouds,60.0
106,busselton,-33.65,115.3333,284.82,3.18,1.0,clear sky,97.0
107,fare,-16.7,-151.0167,300.59,5.07,16.0,few clouds,73.0
108,san jeronimo,-11.9472,-75.2829,287.59,1.14,83.0,broken clouds,56.0
109,blairmore,49.6,-114.4353,284.15,0.51,100.0,overcast clouds,50.0
110,caravelas,-17.7125,-39.2481,301.44,3.0,16.0,few clouds,61.0
111,rusape,-18.5278,32.1284,286.91,2.9,0.0,clear sky,56.0
112,denizli,37.8402,29.0698,296.15,4.63,40.0,scattered clouds,31.0
113,thompson,55.7435,-97.8558,273.15,7.2,90.0,light snow,74.0
114,basoko,1.2391,23.616,294.65,1.07,100.0,heavy intensity rain,98.0
115,hirara,24.8,125.2833,298.2,5.82,18.0,few clouds,92.0
116,touros,-5.1989,-35.4608,300.15,4.12,40.0,scattered clouds,78.0
117,guerrero negro,27.9769,-114.0611,292.21,2.48,0.0,clear sky,64.0
118,mizdah,31.4451,12.9801,305.38,9.47,99.0,overcast clouds,16.0
119,pangnirtung,66.1451,-65.7125,276.15,2.06,75.0,broken clouds,81.0
120,quatre cocos,-20.2078,57.7625,296.48,1.17,75.0,moderate rain,100.0
121,along,28.1667,94.7667,292.76,0.88,78.0,broken clouds,92.0
122,poum,-20.2333,164.0167,298.15,4.87,66.0,broken clouds,80.0
123,sitka,57.0531,-135.33,286.15,6.17,90.0,overcast clouds,50.0
124,talaya,61.3833,152.75,266.12,0.29,60.0,broken clouds,98.0
125,nome,64.5011,-165.4064,270.15,2.79,20.0,few clouds,80.0
126,dongsheng,39.8161,109.9776,278.33,5.76,0.0,clear sky,35.0
127,ribeira grande,38.5167,-28.7,292.15,5.66,75.0,broken clouds,88.0
128,emerald,-23.5333,148.1667,287.15,2.57,21.0,few clouds,58.0
129,san patricio,28.017,-97.5169,301.48,6.17,40.0,scattered clouds,65.0
130,avera,33.194,-82.5271,295.15,2.57,40.0,scattered clouds,60.0
131,mpika,-11.8343,31.4529,287.85,1.89,7.0,clear sky,83.0
132,torbay,47.6666,-52.7314,278.71,4.63,90.0,overcast clouds,81.0
133,byron bay,-28.65,153.6167,290.15,3.6,16.0,few clouds,82.0
134,makakilo city,21.3469,-158.0858,296.15,2.06,1.0,clear sky,73.0
135,fortuna,40.5982,-124.1573,286.48,4.12,20.0,few clouds,93.0
136,port macquarie,-31.4333,152.9167,289.26,0.89,69.0,broken clouds,99.0
137,westport,41.1415,-73.3579,289.26,6.17,1.0,clear sky,36.0
138,gamboma,-1.8764,15.8644,298.31,0.99,99.0,light rain,82.0
139,namibe,-15.1961,12.1522,297.87,3.9,73.0,broken clouds,80.0
140,carnarvon,-24.8667,113.6333,291.15,2.57,8.0,clear sky,88.0
141,baculin,7.4525,126.5842,298.62,3.14,87.0,overcast clouds,86.0
142,luganville,-15.5333,167.1667,299.86,3.67,100.0,overcast clouds,82.0
143,lavrentiya,65.5833,-171.0,264.78,2.98,8.0,clear sky,90.0
144,georgetown,5.4112,100.3354,300.15,2.06,20.0,few clouds,83.0
145,sao joao da barra,-21.6403,-41.0511,304.15,4.12,0.0,clear sky,45.0
146,qaqortoq,60.7167,-46.0333,281.15,5.66,40.0,scattered clouds,46.0
147,sal rei,16.1833,-22.9167,297.15,7.2,40.0,scattered clouds,64.0
148,haines junction,60.7522,-137.5108,277.15,0.51,96.0,overcast clouds,56.0
149,chokurdakh,70.6333,147.9167,256.61,1.31,63.0,broken clouds,99.0
150,chuy,-33.6971,-53.4616,289.11,5.39,0.0,clear sky,52.0
151,pacific grove,36.6177,-121.9166,285.93,1.37,90.0,overcast clouds,82.0
152,tabas,33.5959,56.9244,302.54,1.91,1.0,clear sky,22.0
153,hermanus,-34.4187,19.2345,289.26,6.16,100.0,moderate rain,93.0
154,maunabo,18.0072,-65.8993,302.59,2.68,17.0,few clouds,83.0
155,aransas pass,27.9095,-97.15,300.15,5.66,40.0,scattered clouds,61.0
156,hilo,19.7297,-155.09,295.15,2.06,20.0,few clouds,68.0
157,chifeng,42.2683,118.9636,281.7,4.41,99.0,overcast clouds,29.0
158,marquette,46.5333,-87.6335,281.48,4.17,40.0,scattered clouds,47.0
159,mont-de-marsan,44.0,-0.6667,291.15,6.69,75.0,broken clouds,68.0
160,kirakira,-10.4544,161.9205,299.93,3.91,99.0,overcast clouds,84.0
161,hambantota,6.1241,81.1185,299.15,2.06,40.0,scattered clouds,100.0
162,grand-santi,4.25,-54.3833,304.47,0.84,48.0,scattered clouds,58.0
163,hachinohe,40.5,141.5,284.82,0.89,2.0,clear sky,51.0
164,mgandu,-5.95,34.1333,291.16,2.3,97.0,overcast clouds,80.0
165,harper,4.375,-7.7169,299.79,4.44,100.0,light rain,82.0
166,cayenne,4.9333,-52.3333,304.15,5.14,20.0,few clouds,66.0
167,luderitz,-26.6481,15.1594,291.54,8.75,0.0,clear sky,70.0
168,ogaki,35.35,136.6167,291.15,6.69,75.0,broken clouds,82.0
169,sambava,-14.2667,50.1667,299.1,2.3,63.0,light rain,85.0
170,tutoia,-2.7619,-42.2744,303.15,3.09,75.0,broken clouds,74.0
171,camalu,30.85,-116.0667,291.43,1.96,2.0,clear sky,69.0
172,mahanoro,-19.9,48.8,296.47,3.37,38.0,light rain,85.0
173,aklavik,68.2191,-135.0107,268.15,3.6,90.0,overcast clouds,80.0
174,takoradi,4.8845,-1.7554,301.55,5.74,99.0,moderate rain,75.0
175,vao,-22.6667,167.4833,297.1,3.16,92.0,overcast clouds,79.0
176,kalashnikovo,57.2824,35.2262,279.49,4.85,100.0,overcast clouds,88.0
177,cabo san lucas,22.8909,-109.9124,300.93,3.09,1.0,clear sky,56.0
178,portland,45.5234,-122.6762,289.82,6.17,75.0,broken clouds,51.0
179,port augusta,-32.5,137.7667,290.15,4.63,57.0,broken clouds,39.0
180,lasa,46.6166,10.7002,292.15,3.6,40.0,scattered clouds,49.0
181,auki,-8.7676,160.7034,298.89,1.79,36.0,scattered clouds,87.0
182,obo,5.3998,26.4869,297.2,1.65,85.0,overcast clouds,72.0
183,hofn,64.2539,-15.2082,277.15,3.6,75.0,broken clouds,38.0
184,ponta do sol,32.6667,-17.1,294.15,6.69,40.0,scattered clouds,56.0
185,hasaki,35.7333,140.8333,287.15,1.54,75.0,broken clouds,94.0
186,new bern,35.1085,-77.0441,293.15,3.6,75.0,broken clouds,52.0
187,ahipara,-35.1667,173.1667,286.49,2.91,100.0,overcast clouds,86.0
188,mogadishu,2.0371,45.3438,301.45,6.78,98.0,overcast clouds,79.0
189,lata,40.1629,-8.3327,296.48,1.34,45.0,scattered clouds,78.0
190,lorengau,-2.0226,147.2712,301.01,2.25,86.0,overcast clouds,76.0
191,san felipe,10.3399,-68.7425,301.97,1.16,100.0,overcast clouds,66.0
192,provideniya,64.3833,-173.3,270.17,3.59,5.0,clear sky,78.0
193,pevek,69.7008,170.3133,265.87,1.56,100.0,overcast clouds,83.0
194,la romana,18.4273,-68.9728,303.15,3.6,40.0,scattered clouds,62.0
195,yar-sale,66.8333,70.8333,274.04,8.39,100.0,light rain,98.0
196,turukhansk,65.8167,87.9833,274.07,9.17,100.0,light snow,87.0
197,kommunisticheskiy,61.6789,64.4819,276.98,7.0,69.0,broken clouds,61.0
198,petropavlovsk-kamchatskiy,53.0452,158.6483,273.15,2.0,90.0,snow,100.0
199,ugoofaaru,5.6667,73.0,302.55,0.39,100.0,overcast clouds,64.0
200,tulagi,-9.0996,160.1476,301.49,5.71,87.0,overcast clouds,76.0
201,banda aceh,5.5577,95.3222,299.89,5.23,100.0,moderate rain,79.0
202,antofagasta,-23.65,-70.4,296.48,3.09,20.0,few clouds,72.0
203,kosh-agach,50.0,88.6667,283.22,1.64,100.0,overcast clouds,39.0
204,boende,-0.2167,20.8667,298.53,0.94,94.0,overcast clouds,78.0
205,port hawkesbury,45.6169,-61.3485,278.15,10.8,90.0,mist,93.0
206,saint-denis,48.9167,2.3333,283.15,2.57,90.0,overcast clouds,76.0
207,road town,18.4167,-64.6167,302.15,4.63,40.0,scattered clouds,65.0
208,port moresby,-9.4431,147.1797,297.31,4.17,50.0,scattered clouds,84.0
209,cape canaveral,28.4058,-80.6048,304.82,1.52,20.0,few clouds,70.0
210,enkhuizen,52.7,5.2833,283.15,3.72,100.0,overcast clouds,71.0
211,hovd,48.0056,91.6419,287.57,0.63,100.0,overcast clouds,24.0
212,la asuncion,11.0333,-63.8628,295.15,7.72,72.0,broken clouds,100.0
213,kota kinabalu,5.9749,116.0724,298.15,1.03,20.0,few clouds,94.0
214,vila franca do campo,37.7167,-25.4333,292.15,4.63,40.0,scattered clouds,82.0
215,saint george,37.1041,-113.5841,298.15,1.54,1.0,clear sky,18.0
216,shache,38.4167,77.2406,294.7,3.35,19.0,few clouds,12.0
217,emporia,38.4039,-96.1817,289.15,6.17,1.0,clear sky,44.0
218,orissaare,58.5592,23.0826,280.37,4.02,100.0,overcast clouds,90.0
219,mongo,12.1844,18.693,307.87,3.77,71.0,broken clouds,29.0
220,macau,22.2006,113.5461,298.15,2.57,40.0,scattered clouds,88.0
221,bama,11.5221,13.6856,313.42,2.14,15.0,few clouds,13.0
222,nishihara,26.1842,127.7558,298.15,4.63,75.0,broken clouds,94.0
223,kahului,20.8947,-156.47,294.26,2.06,40.0,scattered clouds,73.0
224,belmonte,-15.8631,-38.8828,301.15,3.6,20.0,few clouds,74.0
225,sayyan,15.1718,44.3244,287.85,2.87,100.0,overcast clouds,71.0
226,yulara,-25.2406,130.9889,290.15,3.02,93.0,overcast clouds,48.0
227,skibbereen,51.55,-9.2667,283.15,3.6,75.0,broken clouds,53.0
228,creel,27.75,-107.6333,294.26,3.7,6.0,clear sky,23.0
229,chino valley,34.7575,-112.4538,297.59,1.54,1.0,clear sky,18.0
230,edd,13.9297,41.6925,303.66,4.13,100.0,overcast clouds,63.0
231,surab,28.4914,66.2585,294.33,5.33,10.0,clear sky,30.0
232,aksarayskiy,46.7924,48.0119,290.93,6.0,0.0,clear sky,44.0
233,broken hill,-31.95,141.4333,282.15,0.76,21.0,few clouds,61.0
234,hamilton,39.1834,-84.5333,288.71,4.12,1.0,clear sky,55.0
235,peniche,39.3558,-9.3811,292.59,4.47,10.0,clear sky,76.0
236,castro,-24.7911,-50.0119,297.14,4.17,6.0,clear sky,45.0
237,lewisporte,49.2499,-55.0482,279.26,3.6,90.0,overcast clouds,87.0
238,japura,-0.3167,102.35,297.72,0.42,97.0,overcast clouds,93.0
239,acapulco,16.8634,-99.8901,304.15,2.3,40.0,scattered clouds,42.0
240,moindou,-21.6924,165.677,293.15,1.38,0.0,clear sky,100.0
241,namatanai,-3.6667,152.4333,299.73,2.51,81.0,light rain,80.0
242,tiksi,71.6872,128.8694,269.61,4.95,100.0,overcast clouds,95.0
243,asfi,32.2994,-9.2372,294.35,10.16,0.0,clear sky,68.0
244,nanortalik,60.1432,-45.2371,275.69,1.36,35.0,scattered clouds,77.0
245,airai,-8.9266,125.4092,287.53,1.32,52.0,broken clouds,92.0
246,ucluelet,48.9329,-125.5528,285.37,9.77,90.0,overcast clouds,76.0
247,constitucion,-35.3333,-72.4167,291.32,1.72,31.0,scattered clouds,53.0
248,najran,17.4924,44.1277,304.15,3.09,75.0,broken clouds,15.0
249,tuatapere,-46.1333,167.6833,280.93,0.89,15.0,few clouds,96.0
250,bengkulu,-3.8004,102.2655,298.17,2.25,100.0,moderate rain,90.0
251,nemuro,43.3236,145.575,279.84,9.3,2.0,clear sky,74.0
252,varkaus,62.3153,27.873,274.15,5.14,90.0,light snow,93.0
253,broome,42.2506,-75.833,285.37,1.34,52.0,broken clouds,52.0
254,jiangkou,25.4872,119.1986,292.15,1.0,20.0,few clouds,94.0
255,tucupita,9.0622,-62.051,301.03,1.85,72.0,broken clouds,80.0
256,flin flon,54.7682,-101.865,277.15,5.66,40.0,scattered clouds,45.0
257,hualmay,-11.0964,-77.6139,294.81,3.85,90.0,overcast clouds,74.0
258,norman wells,65.282,-126.8329,277.15,2.06,20.0,few clouds,52.0
259,nabire,-3.3667,135.4833,298.33,1.32,64.0,broken clouds,91.0
260,krasnoselkup,65.7,82.4667,274.92,12.66,100.0,overcast clouds,95.0
261,jijiga,9.35,42.8,293.2,3.08,99.0,light rain,78.0
262,aksu,41.1231,80.2644,296.64,1.98,100.0,overcast clouds,13.0
263,matagami,49.7502,-77.6328,278.15,5.66,75.0,broken clouds,56.0
264,port hardy,50.6996,-127.4199,287.15,4.12,75.0,broken clouds,58.0
265,ylojarvi,61.5563,23.5961,277.59,4.12,90.0,overcast clouds,87.0
266,nurota,40.5614,65.6886,296.15,2.06,99.0,overcast clouds,38.0
267,benghazi,32.1167,20.0667,298.86,8.57,99.0,overcast clouds,50.0
268,champerico,14.3,-91.9167,302.15,1.76,40.0,scattered clouds,74.0
269,butterworth,5.3991,100.3638,300.15,2.06,20.0,few clouds,83.0
270,solwezi,-12.1688,26.3894,292.21,1.42,47.0,scattered clouds,76.0
271,talnakh,69.4865,88.3972,268.37,1.97,85.0,overcast clouds,95.0
272,parkland,47.1554,-122.434,288.71,3.6,20.0,few clouds,58.0
273,anloga,5.7947,0.8973,303.15,7.2,20.0,few clouds,74.0
274,iranshahr,27.2025,60.6848,305.15,2.06,20.0,few clouds,22.0
275,kabalo,-6.05,26.9167,296.81,0.52,99.0,overcast clouds,87.0
276,buraydah,26.326,43.975,308.15,2.57,0.0,clear sky,17.0
277,arraial do cabo,-22.9661,-42.0278,302.15,4.63,0.0,clear sky,69.0
278,iqaluit,63.7506,-68.5145,273.15,3.09,75.0,broken clouds,93.0
279,garissa,-0.4536,39.6401,302.92,8.38,100.0,overcast clouds,54.0
280,curup,-3.4667,102.5333,293.86,0.39,100.0,moderate rain,98.0
281,comodoro rivadavia,-45.8667,-67.5,286.15,1.03,0.0,clear sky,67.0
282,sweetwater,25.7634,-80.3731,306.48,2.8,20.0,few clouds,58.0
283,carutapera,-1.195,-46.02,302.22,2.12,25.0,scattered clouds,67.0
284,ilulissat,69.2167,-51.1,272.15,3.09,75.0,broken clouds,80.0
285,kamenka,51.3223,42.7678,286.61,3.65,97.0,overcast clouds,64.0
286,mehamn,71.0357,27.8492,275.15,3.09,20.0,few clouds,69.0
287,mayo,38.8876,-76.5119,289.82,3.6,20.0,few clouds,44.0
288,concordia,-31.393,-58.0209,288.15,3.09,40.0,scattered clouds,63.0
289,vetlanda,57.4289,15.0776,278.15,4.12,75.0,broken clouds,93.0
290,palmer,42.1584,-72.3287,288.71,5.66,40.0,scattered clouds,41.0
291,sao filipe,14.8961,-24.4956,296.08,4.4,66.0,broken clouds,75.0
292,ixtapa,20.7,-105.2,299.15,1.03,1.0,clear sky,65.0
293,cockburn town,21.4612,-71.1419,299.38,6.61,4.0,clear sky,72.0
294,gogrial,8.5332,28.1004,303.47,0.51,92.0,light rain,49.0
295,ulladulla,-35.35,150.4667,291.15,5.14,75.0,moderate rain,100.0
296,faya,18.3851,42.4509,296.15,2.06,40.0,scattered clouds,26.0
297,revelstoke,50.9832,-118.2023,283.15,1.54,40.0,scattered clouds,57.0
298,grand gaube,-20.0064,57.6608,296.48,0.89,10.0,light rain,90.0
299,olafsvik,64.8945,-23.7142,275.9,3.64,29.0,scattered clouds,59.0
300,geraldton,-28.7667,114.6,290.15,3.6,90.0,overcast clouds,88.0
301,nuuk,64.1835,-51.7216,273.15,4.12,75.0,broken clouds,86.0
302,dongying,37.4564,118.4856,290.79,8.44,74.0,broken clouds,17.0
303,brigantine,39.4101,-74.3646,290.37,5.14,20.0,few clouds,42.0
304,bathsheba,13.2167,-59.5167,301.15,9.77,75.0,broken clouds,57.0
305,maple creek,49.9168,-109.4848,286.15,3.6,99.0,overcast clouds,41.0
306,skelleftea,64.7507,20.9528,278.71,4.12,0.0,clear sky,65.0
307,chabahar,25.2919,60.643,302.29,3.49,92.0,overcast clouds,75.0
308,zalantun,48.0,122.7167,280.76,3.06,98.0,overcast clouds,54.0
309,klaksvik,62.2266,-6.589,277.15,10.8,75.0,broken clouds,81.0
310,thinadhoo,0.5333,72.9333,302.51,1.55,32.0,scattered clouds,68.0
311,andenes,69.3143,16.1194,278.15,2.57,0.0,clear sky,56.0
312,san pedro,14.35,121.0167,302.15,2.06,20.0,few clouds,74.0
313,moyobamba,-6.05,-76.9667,299.25,0.46,96.0,overcast clouds,68.0
314,setermoen,68.861,18.3486,278.15,4.63,20.0,few clouds,42.0
315,alofi,-19.0595,-169.9187,298.15,2.57,62.0,light rain,94.0
316,boyabat,41.4689,34.7667,290.05,0.67,100.0,overcast clouds,76.0
317,vikulovo,56.8167,70.6107,283.36,5.53,29.0,scattered clouds,42.0
318,saint-pierre,-21.3393,55.4781,297.15,4.63,90.0,light rain,78.0
319,ust-tsilma,65.441,52.1498,275.26,4.02,100.0,overcast clouds,74.0
320,aksarka,66.5606,67.7975,273.66,7.79,100.0,overcast clouds,98.0
321,qarqin,37.4185,66.0436,296.46,3.35,14.0,few clouds,46.0
322,kavieng,-2.5744,150.7967,301.12,3.83,45.0,light rain,78.0
323,bahile,9.9995,118.7878,302.15,2.06,20.0,few clouds,79.0
324,bac lieu,9.285,105.7244,301.76,4.02,99.0,overcast clouds,74.0
325,yerbogachen,61.2767,108.0108,270.03,1.34,16.0,few clouds,92.0
326,khatanga,71.9667,102.5,269.36,4.14,15.0,few clouds,90.0
327,roma,43.2128,-75.4557,284.82,4.63,20.0,few clouds,50.0
328,laem sing,12.4816,102.0738,301.48,2.44,100.0,moderate rain,98.0
329,ambilobe,-13.2,49.05,298.28,0.67,69.0,broken clouds,86.0
330,jiayuguan,39.8167,98.3,289.0,3.01,49.0,scattered clouds,12.0
331,anton lizardo,19.05,-95.9833,304.82,4.12,20.0,few clouds,58.0
332,evensk,61.95,159.2333,265.57,3.52,18.0,few clouds,87.0
333,kamaishi,39.2667,141.8833,284.75,2.59,100.0,overcast clouds,57.0
334,okakarara,-20.5833,17.4333,296.7,0.72,93.0,overcast clouds,35.0
335,papineauville,45.6168,-75.016,285.93,4.63,46.0,scattered clouds,40.0
336,kruisfontein,-34.0033,24.7314,294.82,1.79,26.0,light rain,75.0
337,sobolevo,54.4299,31.8996,281.17,6.67,74.0,broken clouds,77.0
338,mirabad,30.4362,61.8383,302.79,3.07,0.0,clear sky,19.0
339,key west,24.5557,-81.7826,302.59,3.6,1.0,clear sky,70.0
340,homberg,51.0333,9.4,284.15,3.6,90.0,light rain,46.0
341,salta,-24.7859,-65.4117,288.15,1.03,75.0,broken clouds,58.0
342,moyeuvre-grande,49.2517,6.0475,283.15,1.34,100.0,overcast clouds,94.0
343,labuhan,-6.8844,112.2051,299.19,2.09,96.0,overcast clouds,85.0
344,saint-joseph,-21.3667,55.6167,297.15,4.63,90.0,light rain,78.0
345,iquitos,-3.7481,-73.2472,302.15,2.57,75.0,broken clouds,74.0
346,uyemskiy,64.4743,40.8524,279.15,4.0,40.0,light rain,45.0
347,ak-dovurak,51.1833,90.6,288.91,0.82,96.0,overcast clouds,35.0
348,shwebo,22.5667,95.7,304.44,4.11,53.0,broken clouds,43.0
349,san policarpo,12.1791,125.5072,300.49,4.78,90.0,overcast clouds,86.0
350,casablanca,33.5928,-7.6192,298.15,7.72,0.0,clear sky,73.0
351,charters towers,-20.1,146.2667,289.08,2.46,52.0,broken clouds,38.0
352,high rock,26.6208,-78.2833,302.15,4.12,40.0,scattered clouds,65.0
353,tazovskiy,67.4667,78.7,273.37,11.3,100.0,overcast clouds,92.0
354,escanaba,45.7453,-87.0646,283.15,4.63,75.0,broken clouds,61.0
355,ekhabi,53.5102,142.9671,271.32,3.27,97.0,light snow,97.0
356,shingu,33.7333,135.9833,288.22,1.96,91.0,overcast clouds,62.0
357,port lincoln,-34.7333,135.8667,290.15,4.02,73.0,light rain,76.0
358,chara,56.9064,118.2631,274.49,1.47,87.0,overcast clouds,81.0
359,sakakah,29.9697,40.2064,305.15,6.69,0.0,clear sky,10.0
360,port blair,11.6667,92.75,302.52,7.13,98.0,overcast clouds,74.0
361,egvekinot,66.3167,-179.1667,261.56,4.15,0.0,clear sky,72.0
362,port hedland,-20.3167,118.5667,298.15,1.54,40.0,scattered clouds,100.0
363,mahajanga,-15.7167,46.3167,299.15,2.57,20.0,few clouds,78.0
364,lerwick,60.1545,-1.1494,281.15,7.2,20.0,few clouds,57.0
365,la ronge,55.1001,-105.2842,279.15,1.54,6.0,clear sky,36.0
366,sioux lookout,50.1001,-91.917,280.15,2.57,90.0,overcast clouds,49.0
367,kirkenaer,60.4564,12.0582,281.48,3.09,0.0,clear sky,27.0
368,bara,10.3744,10.7288,309.15,5.66,0.0,clear sky,36.0
369,mayor pablo lagerenza,-19.9309,-60.7718,284.76,4.56,100.0,overcast clouds,86.0
370,vanimo,-2.6741,141.3028,299.19,1.95,98.0,overcast clouds,88.0
371,okhotsk,59.3833,143.3,274.37,1.66,100.0,overcast clouds,90.0
372,kargasok,59.0556,80.8572,285.75,7.48,99.0,light rain,73.0
373,soyo,-6.1349,12.3689,303.15,2.57,75.0,broken clouds,70.0
374,bran,45.5167,25.35,288.71,1.73,99.0,overcast clouds,43.0
375,vardo,70.3705,31.1107,276.15,7.72,75.0,broken clouds,65.0
376,gat,31.61,34.7642,299.26,0.89,18.0,few clouds,41.0
377,gamarra,8.3228,-73.7427,303.16,1.71,98.0,overcast clouds,66.0
378,terrace,54.5163,-128.6035,282.15,1.03,90.0,overcast clouds,66.0
379,boo,59.3333,18.2833,277.59,4.63,75.0,broken clouds,81.0
380,umm kaddadah,13.6017,26.6876,305.84,5.98,34.0,scattered clouds,28.0
381,kiunga,-6.1219,141.2906,296.75,1.56,97.0,overcast clouds,98.0
382,ancud,-41.8697,-73.8203,284.26,2.06,0.0,clear sky,82.0
383,la paz,-16.5,-68.15,288.15,3.09,75.0,broken clouds,33.0
384,barcelos,41.5388,-8.6151,292.59,3.09,20.0,few clouds,68.0
385,coahuayana,18.7333,-103.6833,300.15,1.97,1.0,clear sky,44.0
386,berkeley heights,40.6834,-74.4427,289.26,6.17,20.0,few clouds,41.0
387,balatonfoldvar,46.8526,17.8812,284.82,0.89,100.0,overcast clouds,65.0
388,fez,34.0372,-4.9998,302.15,2.06,20.0,few clouds,24.0
389,pilar,-9.5972,-35.9567,302.15,4.63,75.0,broken clouds,65.0
390,korla,41.7597,86.1469,296.7,1.93,1.0,clear sky,13.0
391,acajutla,13.5928,-89.8275,303.15,3.09,20.0,few clouds,62.0
392,tezu,27.9167,96.1667,295.72,1.58,100.0,overcast clouds,78.0
393,tiarei,-17.5333,-149.3333,298.15,0.51,20.0,few clouds,83.0
394,brae,60.3964,-1.353,281.15,7.2,20.0,few clouds,57.0
395,nara,34.6851,135.8049,290.37,0.69,97.0,overcast clouds,50.0
396,khingansk,49.1167,131.1833,278.27,0.48,69.0,broken clouds,89.0
397,bilma,18.6853,12.9164,314.61,5.53,5.0,clear sky,4.0
398,mumford,5.2618,-0.759,301.66,8.57,82.0,broken clouds,76.0
399,el cope,8.6167,-80.6,303.15,3.09,20.0,few clouds,70.0
400,fallon,39.4735,-118.7774,296.48,1.54,20.0,few clouds,25.0
401,mombetsu,44.3525,143.3525,283.94,5.54,0.0,clear sky,49.0
402,mimongo,-1.6195,11.6068,297.11,0.78,100.0,overcast clouds,79.0
403,mwene-ditu,-7.0,23.45,295.61,0.69,81.0,light rain,85.0
404,kholtoson,50.2981,103.3097,277.56,1.93,30.0,scattered clouds,68.0
405,andra,62.5147,65.8878,277.27,8.78,82.0,broken clouds,64.0
406,san ciro de acosta,21.6333,-99.8167,298.34,2.03,61.0,broken clouds,62.0
407,bilibino,68.0546,166.4372,265.81,1.85,100.0,overcast clouds,93.0
408,ilabaya,-17.4208,-70.5133,296.39,3.85,100.0,overcast clouds,47.0
409,katesh,-4.5167,35.3833,289.67,2.29,99.0,overcast clouds,82.0
410,nargana,9.4428,-78.5906,300.69,2.03,100.0,overcast clouds,77.0
411,codrington,-38.2667,141.9667,284.99,3.9,74.0,broken clouds,50.0
412,mackay,-21.15,149.2,288.15,3.6,43.0,scattered clouds,88.0
413,soc trang,9.6033,105.98,299.15,1.03,75.0,broken clouds,94.0
414,igarka,67.4667,86.5833,273.0,6.68,100.0,overcast clouds,88.0
415,asuncion,-25.3007,-57.6359,288.15,6.17,90.0,overcast clouds,82.0
416,arenzano,44.4052,8.6832,289.82,11.32,75.0,broken clouds,82.0
417,jiangyou,31.7667,104.7167,291.04,0.7,100.0,light rain,84.0
418,chernyshevskiy,63.0128,112.4714,273.61,1.03,100.0,light rain,99.0
419,camacha,33.0833,-16.3333,293.15,5.66,20.0,few clouds,64.0
420,pekalongan,-6.8886,109.6753,287.59,1.07,99.0,overcast clouds,100.0
421,camopi,3.1655,-52.3158,301.48,1.03,81.0,broken clouds,81.0
422,uribia,11.7139,-72.266,305.29,9.06,88.0,overcast clouds,47.0
423,gizo,-8.103,156.8419,301.12,2.46,85.0,light rain,76.0
424,the pas,53.8251,-101.2541,277.15,4.63,1.0,clear sky,52.0
425,general roca,-39.0333,-67.5833,286.15,3.11,0.0,clear sky,58.0
426,ketchikan,55.3422,-131.6461,286.15,2.57,90.0,overcast clouds,50.0
427,raudeberg,61.9875,5.1352,282.04,6.25,40.0,scattered clouds,56.0
428,saint-leu,-21.15,55.2833,297.15,4.63,90.0,light rain,78.0
429,grand baie,-20.0182,57.5802,296.48,0.89,11.0,light rain,90.0
430,itarema,-2.9248,-39.9167,299.86,3.57,100.0,overcast clouds,82.0
431,morant bay,17.8815,-76.4093,303.15,9.77,40.0,scattered clouds,66.0
432,sinnamary,5.3833,-52.95,300.86,2.09,57.0,light rain,76.0
433,nisia floresta,-6.0911,-35.2086,303.15,6.69,75.0,broken clouds,58.0
434,rio gallegos,-51.6226,-69.2181,279.15,3.09,0.0,clear sky,81.0
435,turtas,58.9417,69.1325,281.28,4.81,33.0,scattered clouds,60.0
436,adrar,20.5022,-10.0711,306.7,4.31,2.0,clear sky,13.0
437,matara,5.9485,80.5353,299.35,2.03,74.0,broken clouds,87.0
438,waddan,29.1614,16.139,315.22,6.44,100.0,overcast clouds,4.0
439,lavumisa,-27.31,31.892,299.15,2.06,2.0,clear sky,57.0
440,leningradskiy,69.3833,178.4167,259.66,2.88,34.0,scattered clouds,89.0
441,wad madani,14.4012,33.5199,311.14,1.93,58.0,broken clouds,16.0
442,dali,25.7,100.1833,287.22,2.6,98.0,overcast clouds,73.0
443,arauca,7.0847,-70.7591,301.15,4.63,98.0,overcast clouds,74.0
444,hearst,49.6835,-83.6665,278.15,2.57,63.0,broken clouds,56.0
445,causapscal,48.3542,-67.227,276.19,1.32,100.0,overcast clouds,99.0
446,zhuhai,22.2769,113.5678,298.15,2.57,40.0,scattered clouds,88.0
447,kushima,31.4583,131.2333,288.71,0.89,81.0,broken clouds,82.0
448,fomboni,-12.28,43.7425,300.28,8.68,95.0,overcast clouds,68.0
449,gurupa,-1.405,-51.64,305.29,0.56,95.0,overcast clouds,52.0
450,kedrovyy,56.1667,91.8167,282.15,2.0,0.0,clear sky,66.0
451,sabha,27.0377,14.4283,314.59,3.3,1.0,clear sky,3.0
452,rafsanjan,30.4067,55.9939,299.58,2.75,8.0,clear sky,16.0
453,anadyr,64.75,177.4833,259.15,1.11,40.0,fog,92.0
454,pitimbu,-7.4706,-34.8086,301.15,5.66,75.0,broken clouds,78.0
455,kurchum,48.5722,83.6542,293.46,2.94,64.0,broken clouds,26.0
456,lai,9.3952,16.2989,305.68,6.72,79.0,broken clouds,39.0
457,cadereyta,25.5833,-99.9833,296.15,2.57,90.0,overcast clouds,83.0
458,le port,-20.9373,55.2919,298.15,3.09,75.0,light rain,88.0
459,mount pleasant,32.7941,-79.8626,298.15,2.39,20.0,few clouds,57.0
460,sur,22.5667,59.5289,303.24,6.26,93.0,overcast clouds,61.0
461,sikasso,10.9167,-7.0,310.58,1.65,96.0,overcast clouds,24.0
462,naifaru,5.4444,73.3657,302.56,0.94,100.0,overcast clouds,66.0
463,mount isa,-20.7333,139.5,287.15,4.45,100.0,overcast clouds,35.0
464,jatiroto,-7.8833,111.1167,297.37,0.78,100.0,overcast clouds,92.0
465,mastic beach,40.7668,-72.8521,289.15,8.23,1.0,clear sky,36.0
466,odesskoye,54.2111,72.9651,287.66,5.34,74.0,broken clouds,38.0
467,sunbury,-37.5833,144.7333,284.26,2.06,0.0,clear sky,93.0
468,orocue,4.7912,-71.3354,304.0,3.29,93.0,overcast clouds,59.0
469,mahibadhoo,3.7833,72.9667,302.75,2.18,98.0,overcast clouds,68.0
470,harwich,51.9419,1.2844,284.26,2.68,91.0,overcast clouds,51.0
471,hay river,60.8156,-115.7999,285.15,1.03,87.0,overcast clouds,32.0
472,luba,3.4568,8.5547,301.15,4.63,20.0,few clouds,83.0
473,dunmore town,25.5,-76.65,299.15,3.21,6.0,clear sky,73.0
474,gonzales,30.2385,-90.9201,297.59,3.6,1.0,clear sky,60.0
475,mahon,39.8885,4.2658,292.15,6.17,0.0,clear sky,68.0
476,samarai,-10.6167,150.6667,299.46,3.61,0.0,clear sky,74.0
477,ushirombo,-3.4919,31.9639,292.92,1.87,71.0,light rain,87.0
478,xunchang,28.4543,104.715,290.56,1.11,83.0,light rain,89.0
479,pimenta bueno,-11.6725,-61.1936,303.49,1.98,56.0,broken clouds,48.0
480,goundam,16.4145,-3.6708,314.43,6.24,53.0,broken clouds,12.0
481,dunda,-8.1167,34.25,293.96,2.29,100.0,overcast clouds,70.0
482,cotonou,6.3654,2.4183,301.15,5.66,40.0,scattered clouds,78.0
483,luanda,-8.8368,13.2343,301.15,3.09,75.0,broken clouds,74.0
484,tres arroyos,-38.3739,-60.2798,287.32,4.84,98.0,overcast clouds,56.0
485,ikom,5.9667,8.7063,299.96,2.17,100.0,moderate rain,85.0
486,horsham,51.064,-0.3272,284.82,4.12,20.0,few clouds,61.0
487,talavera de la reina,39.9635,-4.8308,299.82,6.82,62.0,broken clouds,31.0
488,tual,-5.6667,132.75,301.8,8.96,65.0,broken clouds,75.0
489,nhulunbuy,-12.2333,136.7667,298.15,2.57,6.0,clear sky,69.0
490,chapais,49.7834,-74.8492,276.15,6.69,90.0,overcast clouds,65.0
491,dunedin,-45.8742,170.5036,285.37,4.47,37.0,scattered clouds,93.0
492,kuala terengganu,5.3302,103.1408,298.15,1.03,40.0,scattered clouds,94.0
493,salinas,36.6777,-121.6555,285.93,2.06,90.0,overcast clouds,87.0
494,esso,55.9333,158.7,268.29,1.59,100.0,overcast clouds,88.0
495,coquimbo,-29.9533,-71.3436,294.15,1.79,0.0,clear sky,49.0
496,minudasht,37.2289,55.3747,289.15,2.06,90.0,mist,94.0
497,lensk,60.7253,114.9278,274.72,1.46,100.0,overcast clouds,98.0
498,rocha,-34.4833,-54.3333,288.93,6.41,2.0,clear sky,57.0
499,chanasma,23.7167,72.1167,305.93,3.16,0.0,clear sky,22.0
500,vega de alatorre,20.0333,-96.6333,301.85,4.97,76.0,broken clouds,68.0
501,yatou,37.15,122.3833,286.78,8.85,96.0,light rain,87.0
502,mitsamiouli,-11.3847,43.2844,300.15,9.77,20.0,few clouds,74.0
503,sibolga,1.7427,98.7792,298.81,0.38,100.0,overcast clouds,86.0
504,moyale,3.5167,39.0584,297.64,2.64,100.0,overcast clouds,55.0
505,vilcun,-38.65,-72.2333,286.15,1.03,0.0,clear sky,71.0
506,nouakchott,18.0858,-15.9785,305.15,7.2,0.0,clear sky,27.0
507,alta floresta,-9.8756,-56.0861,305.15,3.6,20.0,few clouds,48.0
508,rawson,-43.3002,-65.1023,287.38,3.38,26.0,scattered clouds,40.0
509,tawang,27.5833,91.8667,281.83,0.07,98.0,overcast clouds,92.0
510,ternate,0.8,127.4,300.62,1.49,61.0,broken clouds,78.0
511,gushikawa,26.3544,127.8686,297.15,2.06,75.0,broken clouds,94.0
512,zalesovo,53.9939,84.7431,288.92,2.29,100.0,overcast clouds,62.0
513,puro,12.4841,123.3827,300.02,4.41,40.0,scattered clouds,86.0
514,san juan,-31.5375,-68.5364,291.85,3.95,0.0,clear sky,30.0
515,srednekolymsk,67.45,153.6833,268.16,2.56,100.0,overcast clouds,96.0
516,san cristobal,7.7669,-72.225,301.15,3.09,40.0,scattered clouds,69.0
517,capoterra,39.1763,8.9718,296.15,4.12,0.0,clear sky,64.0
518,modra,48.334,17.3071,287.15,7.72,20.0,few clouds,47.0
519,cabedelo,-6.9811,-34.8339,301.15,5.66,75.0,broken clouds,78.0
520,sawakin,19.1059,37.3321,304.19,2.06,0.0,clear sky,47.0
521,tilichiki,60.4667,166.1,263.59,3.38,74.0,broken clouds,93.0
522,porterville,36.0652,-119.0168,297.04,3.09,1.0,clear sky,43.0
523,hervey bay,-25.2986,152.8535,289.26,3.88,99.0,overcast clouds,77.0
524,havelock,34.8791,-76.9013,293.15,4.12,90.0,overcast clouds,52.0
525,choix,26.7092,-108.3219,303.36,1.19,1.0,clear sky,26.0
526,moerai,-22.4333,-151.3333,296.67,4.35,100.0,overcast clouds,66.0
527,port shepstone,-30.7414,30.455,294.99,6.61,22.0,light rain,83.0
528,broadstairs,51.3591,1.4394,283.15,1.34,92.0,overcast clouds,61.0
529,charyshskoye,51.3978,83.5598,289.17,3.17,87.0,overcast clouds,54.0
530,bikapur,26.6,82.1333,303.12,6.32,79.0,broken clouds,45.0
531,mweka,-4.85,21.5667,297.84,0.61,92.0,overcast clouds,76.0
532,ozu,33.5,132.55,288.71,2.24,92.0,overcast clouds,73.0
533,karratha,-20.7377,116.8463,299.63,2.73,96.0,overcast clouds,61.0
534,kachug,53.9606,105.8817,276.47,4.17,100.0,light snow,82.0
535,tlachichuca,19.1,-97.4167,289.79,1.54,57.0,broken clouds,49.0
536,kondinskoye,59.6481,67.41,280.95,7.94,37.0,scattered clouds,61.0
537,piacabucu,-10.4056,-36.4344,301.7,3.48,89.0,overcast clouds,63.0
538,arlit,18.7369,7.3853,315.25,1.26,58.0,broken clouds,3.0
539,loukhi,66.0764,33.0381,273.93,4.66,100.0,overcast clouds,71.0
540,deputatskiy,69.3,139.9,267.26,1.25,100.0,overcast clouds,98.0
541,awbari,26.5921,12.7805,315.27,3.63,1.0,clear sky,3.0
542,myrtle beach,33.6891,-78.8867,295.37,5.14,40.0,scattered clouds,60.0
543,vung tau,10.346,107.0843,301.99,8.9,97.0,overcast clouds,78.0
544,el balsamo,15.0667,-87.4667,300.15,2.06,40.0,scattered clouds,74.0
545,vostok,46.4856,135.8833,278.19,2.94,79.0,light rain,81.0
546,millinocket,45.6573,-68.7098,284.15,7.72,90.0,overcast clouds,62.0
547,sabang,5.8933,95.3214,302.16,8.29,100.0,overcast clouds,73.0
548,loviisa,60.4566,26.2251,278.15,0.45,100.0,overcast clouds,87.0
549,kulhudhuffushi,6.6221,73.07,302.59,0.94,21.0,few clouds,66.0
550,armeria,18.9333,-103.9667,300.15,1.8,1.0,clear sky,44.0
551,bajil,15.0584,43.2851,303.07,0.51,99.0,overcast clouds,59.0
552,tilhar,27.9833,79.7333,303.07,3.46,65.0,broken clouds,33.0
553,el reno,35.5323,-97.955,293.15,5.14,1.0,clear sky,68.0
554,kavaratti,10.5669,72.642,303.36,2.62,100.0,overcast clouds,67.0
555,darnah,32.767,22.6367,293.85,2.91,100.0,overcast clouds,66.0
556,inirida,3.8653,-67.9239,302.12,0.52,99.0,overcast clouds,76.0
557,miri,4.4148,114.0089,296.15,1.87,40.0,moderate rain,100.0
558,basco,20.4487,121.9702,299.89,7.02,1.0,clear sky,87.0
559,kisangani,0.5167,25.2,301.15,1.22,75.0,light rain,74.0
560,olavarria,-36.8927,-60.3225,286.22,3.73,78.0,broken clouds,51.0
561,komsomolskiy,40.4272,71.7189,293.15,3.09,75.0,broken clouds,64.0
562,yumen,40.2833,97.2,290.51,3.83,12.0,few clouds,11.0
563,salalah,17.0151,54.0924,303.15,3.09,75.0,broken clouds,79.0
564,millerovo,48.9226,40.3967,288.3,3.37,100.0,overcast clouds,59.0
565,ondjiva,-17.0667,15.7333,302.15,1.03,40.0,scattered clouds,39.0
566,prieska,-29.6641,22.7474,295.05,5.14,34.0,light rain,36.0
567,altay,47.8667,88.1167,288.42,4.35,41.0,scattered clouds,30.0
568,novaya zaimka,56.4857,66.9241,282.22,5.34,34.0,scattered clouds,42.0
569,keflavik,64.0049,-22.5624,279.15,7.72,20.0,few clouds,52.0
570,ballina,-28.8667,153.5667,290.15,3.6,9.0,clear sky,82.0
571,bukama,-9.2,25.85,298.15,0.56,31.0,scattered clouds,75.0
572,batemans bay,-35.7167,150.1833,292.04,0.89,100.0,overcast clouds,92.0
573,tete,-16.1564,33.5867,302.04,3.6,0.0,clear sky,34.0
574,sao sebastiao,-23.76,-45.4097,300.08,2.45,0.0,clear sky,58.0
575,banff,51.1762,-115.5698,285.15,1.54,100.0,overcast clouds,42.0
576,cedar city,37.6775,-113.0619,293.71,1.54,1.0,clear sky,19.0
577,scottsbluff,41.8666,-103.6672,287.59,2.06,1.0,clear sky,47.0
578,itaituba,-4.2761,-55.9836,305.15,0.47,20.0,few clouds,62.0
579,conde,-7.2597,-34.9075,301.15,5.66,75.0,broken clouds,78.0
580,alekseyevsk,57.8406,108.3492,272.44,1.94,98.0,overcast clouds,95.0
581,taksimo,56.3444,114.8794,275.0,1.25,100.0,overcast clouds,78.0
582,kalmunai,7.4167,81.8167,301.73,2.96,7.0,clear sky,74.0
583,gumdag,39.2061,54.5906,291.87,6.17,77.0,broken clouds,55.0
584,necochea,-38.5473,-58.7368,289.82,4.47,100.0,overcast clouds,68.0
585,launceston,-41.45,147.1667,284.82,2.06,40.0,mist,100.0
586,yeppoon,-23.1333,150.7333,284.15,1.95,57.0,broken clouds,82.0
587,blagodatnoye,45.3997,42.5867,289.15,4.0,0.0,clear sky,44.0
588,catamarca,-28.4696,-65.7852,294.26,0.89,0.0,clear sky,68.0
589,poronaysk,49.2167,143.1167,276.6,1.14,71.0,broken clouds,88.0
590,mildura,-34.2,142.15,282.15,1.81,40.0,scattered clouds,61.0
591,xingyi,24.1877,102.817,289.35,2.16,99.0,overcast clouds,80.0
592,harboore,56.6175,8.1807,280.37,0.45,100.0,overcast clouds,68.0
593,chingirlau,51.095,54.0814,286.15,1.27,6.0,clear sky,49.0
594,mandalgovi,45.7625,106.2708,278.19,3.36,17.0,few clouds,30.0
595,calama,-22.4667,-68.9333,294.15,1.54,0.0,clear sky,11.0
596,waipawa,-41.4122,175.5153,286.15,5.14,20.0,few clouds,82.0
597,mozhaysk,55.5019,36.0272,280.58,5.2,100.0,overcast clouds,87.0
598,jalpa,21.6333,-102.9667,295.15,2.06,1.0,clear sky,43.0
599,guinguineo,14.2667,-15.95,315.15,3.09,0.0,clear sky,20.0
600,arman,59.7,150.1667,274.88,2.28,92.0,overcast clouds,83.0
601,fukagawa,43.7081,142.0392,281.12,3.38,5.0,clear sky,68.0
602,riyadh,24.6877,46.7219,308.15,2.57,0.0,clear sky,7.0
603,gurupi,-11.7292,-49.0686,304.71,1.05,1.0,clear sky,44.0
604,vuktyl,63.8567,57.3094,276.11,6.86,100.0,overcast clouds,64.0
605,tres passos,-27.4556,-53.9319,284.82,1.34,100.0,light rain,99.0
606,rosarito,32.3333,-117.0333,292.15,1.54,40.0,scattered clouds,77.0
607,oktyabrskiy,54.4815,53.471,284.67,0.74,60.0,broken clouds,76.0
608,kalat,29.0225,66.5916,291.5,4.88,19.0,few clouds,37.0
609,yambio,4.5721,28.3955,297.64,1.1,100.0,overcast clouds,72.0
610,elizabeth city,36.2946,-76.2511,290.37,3.09,90.0,overcast clouds,48.0
611,kontagora,10.3999,5.4695,307.48,2.53,75.0,broken clouds,27.0
612,udimskiy,61.1417,45.9144,280.94,2.93,97.0,light rain,75.0
613,octeville,49.6261,-1.6435,283.15,2.06,0.0,clear sky,62.0
614,raypur,22.4108,88.5094,300.41,5.07,20.0,few clouds,76.0
615,dhidhdhoo,6.8833,73.1,302.67,0.89,28.0,scattered clouds,66.0
616,terney,45.0503,136.6092,283.47,1.57,78.0,broken clouds,69.0
617,barabai,-2.5833,115.3833,296.87,0.59,100.0,overcast clouds,98.0
618,drovyanaya,51.5833,113.0333,276.15,1.0,53.0,broken clouds,60.0
619,ende,-8.8432,121.6623,298.66,1.88,78.0,broken clouds,83.0
620,hobyo,5.3505,48.5268,302.75,3.97,52.0,broken clouds,69.0
621,doha,25.2867,51.5333,302.59,2.06,0.0,clear sky,58.0
622,son la,21.3167,103.9,294.82,0.93,96.0,moderate rain,81.0
623,meiganga,6.5167,14.3,293.81,1.78,100.0,moderate rain,93.0
624,virginia beach,36.8529,-75.978,290.15,3.09,20.0,few clouds,42.0
625,buriti bravo,-5.8372,-43.8336,300.31,1.48,69.0,broken clouds,78.0
626,ulverstone,-41.15,146.1667,287.59,4.02,99.0,overcast clouds,93.0
627,aden,12.7794,45.0367,302.83,1.29,84.0,broken clouds,70.0
628,warrenton,-28.114,24.8475,295.1,3.75,100.0,overcast clouds,27.0
629,nouadhibou,20.931,-17.0347,298.15,7.72,0.0,clear sky,53.0
630,illapel,-31.6308,-71.1653,297.68,1.65,12.0,few clouds,23.0
631,divinopolis,-20.1389,-44.8839,301.14,2.66,3.0,clear sky,30.0
632,beruwala,6.4788,79.9828,299.95,2.03,31.0,scattered clouds,82.0
633,valle de allende,26.9333,-105.4,298.01,5.18,16.0,few clouds,38.0
634,solnechnyy,50.7214,136.6319,271.36,1.96,87.0,overcast clouds,96.0
635,mount gambier,-37.8333,140.7667,285.15,4.12,81.0,broken clouds,66.0
636,verkhnevilyuysk,63.4453,120.3167,274.07,2.07,100.0,overcast clouds,93.0
637,mangai,-4.05,19.5333,298.48,1.18,99.0,overcast clouds,76.0
638,rock springs,41.5875,-109.2029,287.59,1.41,1.0,clear sky,22.0
639,xining,36.6167,101.7667,283.69,1.58,17.0,few clouds,25.0
640,rawlins,41.7911,-107.2387,282.15,3.39,1.0,clear sky,53.0
641,saint-georges,12.0564,-61.7485,302.15,9.77,40.0,scattered clouds,70.0
642,plettenberg bay,-34.0527,23.3716,291.45,4.87,50.0,light rain,90.0
643,grindavik,63.8424,-22.4338,279.15,7.72,20.0,few clouds,52.0
644,inhambane,-23.865,35.3833,295.93,2.06,40.0,scattered clouds,68.0
645,osmena,10.5208,119.9258,302.52,9.4,77.0,broken clouds,76.0
646,morondava,-20.2833,44.2833,298.13,7.91,1.0,clear sky,72.0
647,tautira,-17.7333,-149.15,298.15,0.51,20.0,few clouds,83.0
648,henties bay,-22.116,14.2845,290.37,3.13,17.0,few clouds,86.0
649,almaznyy,48.0448,40.045,292.15,3.0,0.0,clear sky,45.0
650,beloha,-25.1667,45.05,292.58,2.97,0.0,clear sky,80.0
651,nelson bay,-32.7167,152.15,292.15,4.63,90.0,light rain,100.0
652,mino,34.8269,135.4706,290.37,0.24,95.0,overcast clouds,56.0
653,tancheng,27.4375,115.4976,292.85,0.85,100.0,light rain,97.0
654,tari,12.4086,4.4914,313.09,1.57,47.0,scattered clouds,15.0
655,muravlenko,63.7898,74.523,275.24,10.09,92.0,overcast clouds,85.0
656,bryanka,48.511,38.6722,288.04,2.66,100.0,overcast clouds,60.0
657,santa rosa,14.3122,121.1114,302.15,2.06,20.0,few clouds,74.0
658,asyut,27.181,31.1837,312.15,7.72,0.0,clear sky,17.0
659,senden,48.3244,10.0444,280.37,3.09,90.0,moderate rain,87.0
660,muisne,0.6,-80.0333,301.15,3.6,40.0,light rain,89.0
661,nago,26.5881,127.9761,297.15,2.06,75.0,broken clouds,94.0
662,teguise,29.0605,-13.564,296.15,10.29,20.0,few clouds,56.0
663,abu kamal,34.4506,40.9171,304.43,3.59,96.0,overcast clouds,16.0
664,winnemucca,40.973,-117.7357,292.15,0.2,1.0,clear sky,27.0
665,marechal candido rondon,-24.5561,-54.0567,287.52,4.48,100.0,light rain,92.0
666,gasa,31.5,34.4667,299.26,1.34,40.0,scattered clouds,41.0
667,morgan city,29.6994,-91.2068,299.26,4.12,1.0,clear sky,73.0
668,mana,5.6592,-53.7767,301.01,2.29,38.0,scattered clouds,76.0
669,maldonado,-34.6667,-54.9167,290.15,7.2,75.0,broken clouds,55.0
670,middleton,53.55,-2.2,281.48,2.24,75.0,broken clouds,72.0
671,sao jose da coroa grande,-8.8978,-35.1478,301.27,3.17,74.0,broken clouds,67.0
672,udachnyy,66.4167,112.4,273.48,2.74,87.0,overcast clouds,75.0
673,souillac,-20.5167,57.5167,295.15,1.73,75.0,moderate rain,100.0
674,alvaraes,-3.2208,-64.8042,304.15,3.09,40.0,scattered clouds,74.0
675,hienghene,-20.6833,164.9333,295.66,2.46,42.0,scattered clouds,89.0
676,santa maria,-29.6842,-53.8069,288.15,3.09,40.0,scattered clouds,63.0
677,vila,42.0304,-8.1588,291.48,4.63,75.0,broken clouds,67.0
678,debre birhan,9.6833,39.5333,285.52,2.23,98.0,light rain,83.0
679,kupang,-10.1667,123.5833,298.77,4.85,100.0,overcast clouds,76.0
680,fort nelson,58.8053,-122.7002,285.15,3.09,75.0,broken clouds,43.0
681,dimitrovgrad,54.2139,49.6184,291.15,3.0,83.0,broken clouds,36.0
682,istok,42.7808,20.4875,295.15,7.2,20.0,few clouds,26.0
683,kidal,18.4411,1.4078,314.84,4.49,9.0,clear sky,7.0
684,vestmannaeyjar,63.4427,-20.2734,278.15,4.63,20.0,few clouds,70.0
685,teseney,15.11,36.6575,307.34,3.36,89.0,overcast clouds,25.0
686,canutama,-6.5339,-64.3831,303.99,1.66,40.0,scattered clouds,60.0
687,bandar-e lengeh,26.5579,54.8807,303.15,5.34,0.0,clear sky,62.0
688,oak ridge,36.0104,-84.2696,290.37,0.45,43.0,scattered clouds,60.0
689,tatvan,38.5067,42.2817,287.46,1.7,100.0,overcast clouds,55.0
690,otkaznoye,44.3264,43.8608,290.15,6.0,23.0,few clouds,39.0
691,butajira,8.1167,38.3667,289.25,1.95,93.0,moderate rain,90.0
692,ostrovnoy,68.0531,39.5131,272.42,3.86,99.0,overcast clouds,85.0
693,wiarton,44.7407,-81.1332,282.59,2.57,40.0,scattered clouds,76.0
694,hailar,49.2,119.7,280.22,1.3,56.0,broken clouds,44.0
695,aykhal,66.0,111.5,268.09,1.69,71.0,broken clouds,92.0
696,sola,-13.8833,167.55,299.15,6.73,20.0,few clouds,100.0
697,christchurch,-43.5333,172.6333,285.37,2.57,40.0,scattered clouds,87.0
698,beyneu,45.3167,55.2,284.75,2.03,100.0,overcast clouds,68.0
699,kjollefjord,70.9457,27.3465,275.15,3.09,20.0,few clouds,69.0
700,san cosme y damian,-27.3167,-56.35,288.15,4.63,75.0,broken clouds,77.0
701,galle,6.0367,80.217,300.14,2.73,89.0,overcast clouds,81.0
702,yaguajay,22.3272,-79.2378,304.42,4.37,0.0,clear sky,48.0
703,puerto madryn,-42.7692,-65.0385,288.2,3.33,14.0,few clouds,39.0
704,bradut,46.1333,25.6167,288.71,0.89,76.0,broken clouds,51.0
705,viedma,-40.8135,-62.9967,289.33,2.31,54.0,broken clouds,36.0
706,monteagudo,-19.8167,-63.9833,285.15,2.06,90.0,overcast clouds,82.0
707,itapipoca,-3.4944,-39.5786,300.95,1.79,99.0,heavy intensity rain,77.0
708,laurel,39.0993,-76.8483,289.82,3.09,1.0,clear sky,47.0
709,phalaborwa,-23.943,31.1411,296.15,1.54,84.0,broken clouds,60.0
710,madhugiri,13.6606,77.2092,304.32,5.87,89.0,overcast clouds,34.0
711,san matias,-16.3667,-58.4,298.08,4.21,1.0,clear sky,44.0
712,puerto escondido,15.85,-97.0667,303.15,3.09,40.0,scattered clouds,70.0
713,palana,59.1167,159.9667,269.43,2.28,13.0,few clouds,77.0
714,weligama,5.9667,80.4167,299.41,2.13,85.0,overcast clouds,86.0
715,bubaque,11.2833,-15.8333,299.08,6.59,92.0,overcast clouds,65.0
716,hillsboro,45.5229,-122.9898,289.26,2.72,1.0,clear sky,58.0
717,khao yoi,13.2403,99.8243,297.59,0.45,100.0,light rain,83.0
718,barentu,15.1139,37.5928,304.94,5.45,98.0,overcast clouds,22.0
719,taiyuan,37.8694,112.5603,286.15,5.0,0.0,sand,14.0
720,calvinia,-31.4707,19.776,288.83,2.66,2.0,clear sky,44.0
721,bambanglipuro,-7.95,110.2833,298.89,2.26,90.0,overcast clouds,87.0
722,goderich,43.7501,-81.7165,279.15,2.57,16.0,few clouds,75.0
723,pangody,65.85,74.4859,274.76,4.61,100.0,overcast clouds,99.0
724,pijino,9.3291,-74.453,302.84,1.34,97.0,overcast clouds,69.0
725,verkhniy avzyan,53.5289,57.5372,282.32,1.29,73.0,broken clouds,70.0
726,danville,36.586,-79.395,290.37,1.54,90.0,overcast clouds,48.0
727,canby,45.2629,-122.6926,289.26,4.63,1.0,clear sky,55.0
728,kamina,-8.7386,24.9906,295.35,1.53,90.0,overcast clouds,78.0
729,kotelnich,58.3089,48.348,283.95,3.5,99.0,overcast clouds,81.0
730,baghdad,33.3406,44.4009,308.15,2.57,0.0,clear sky,16.0
731,nokha,27.6,73.4167,302.42,2.45,100.0,overcast clouds,34.0
732,ankazoabo,-22.2833,44.5167,294.06,3.29,1.0,clear sky,53.0
733,quirinopolis,-18.4483,-50.4517,304.74,2.22,0.0,clear sky,20.0
734,merrill,45.1805,-89.6835,284.82,3.09,75.0,broken clouds,35.0
735,daru,-9.0763,143.2092,298.55,5.09,54.0,broken clouds,76.0
736,severo-yeniseyskiy,60.3725,93.0408,274.23,2.93,100.0,overcast clouds,87.0
737,sibay,52.7181,58.6658,283.28,2.79,9.0,clear sky,60.0
738,awjilah,29.1081,21.2869,315.43,2.88,92.0,overcast clouds,5.0
739,waverley,-25.7023,28.2591,292.59,2.31,24.0,few clouds,63.0
740,murayama,38.5193,140.3346,283.28,0.78,91.0,overcast clouds,62.0
741,turbat,26.0023,63.044,305.24,5.99,34.0,scattered clouds,42.0
742,praia da vitoria,38.7333,-27.0667,295.15,8.67,40.0,scattered clouds,64.0
743,morros,-9.4467,-46.3003,303.45,1.8,69.0,broken clouds,47.0
744,bow island,49.8668,-111.3684,287.15,4.63,91.0,overcast clouds,44.0
745,bahar,34.9072,48.4414,292.34,5.73,56.0,broken clouds,26.0
746,buin,-33.7333,-70.75,294.15,1.76,0.0,clear sky,40.0
747,camana,-16.6228,-72.7111,294.22,3.16,100.0,overcast clouds,80.0
748,la serena,-29.9078,-71.2542,294.15,1.54,0.0,clear sky,49.0
749,husavik,66.0449,-17.3389,274.15,6.17,90.0,overcast clouds,60.0
750,tamandare,-8.7597,-35.1047,301.52,3.3,78.0,broken clouds,66.0
751,ridgecrest,35.6225,-117.6709,299.82,1.54,1.0,clear sky,15.0
752,tynda,55.1667,124.7167,272.34,2.0,80.0,broken clouds,89.0
753,bad windsheim,49.5,10.4167,281.48,2.06,90.0,light rain,81.0
754,zabaykalsk,49.6333,117.3167,280.28,4.08,79.0,broken clouds,55.0
755,lerik,38.7726,48.4128,287.15,4.63,75.0,broken clouds,82.0
756,moron,-34.6534,-58.6198,290.93,3.6,0.0,clear sky,39.0
757,folsom,38.678,-121.1761,293.15,6.17,1.0,clear sky,51.0
758,marawi,7.9986,124.2928,298.71,2.68,67.0,broken clouds,90.0
759,sirari,-1.2333,34.4333,290.93,1.48,58.0,moderate rain,92.0
760,vestmanna,62.1564,-7.1664,276.15,8.75,20.0,light intensity drizzle,87.0
761,margate,51.3813,1.3862,283.15,1.34,93.0,overcast clouds,61.0
762,price,39.5994,-110.8107,290.15,2.06,1.0,clear sky,19.0
763,moussoro,13.6408,16.4901,314.92,4.62,4.0,clear sky,7.0
764,temir,49.1414,57.13,285.81,3.93,99.0,overcast clouds,49.0
765,tokur,53.1333,132.9,268.11,1.82,100.0,overcast clouds,92.0
766,whakatane,-37.9585,176.9854,282.59,3.45,6.0,clear sky,99.0
767,tigil,57.8,158.6667,272.85,1.92,56.0,broken clouds,67.0
768,bage,-31.3314,-54.1069,288.15,4.63,0.0,clear sky,51.0
769,yunyang,33.4474,112.7142,290.69,0.98,100.0,light rain,90.0
770,marienburg,54.0359,19.0266,285.93,7.51,79.0,broken clouds,100.0
771,oranjemund,-28.55,16.4333,288.78,4.82,0.0,clear sky,87.0
772,magadan,59.5667,150.8,274.17,4.72,80.0,broken clouds,86.0
773,mareeba,-17.0,145.4333,291.15,0.51,44.0,scattered clouds,88.0
774,belaya gora,68.5333,146.4167,269.52,2.57,100.0,overcast clouds,91.0
775,bethanien,-26.502,17.1583,296.79,8.02,1.0,clear sky,25.0
776,wahiawa,21.5028,-158.0236,296.48,1.54,20.0,few clouds,88.0
777,sesimbra,38.4445,-9.1015,297.15,5.66,20.0,few clouds,46.0
778,alyangula,-13.8483,136.4192,293.15,1.54,3.0,clear sky,100.0
779,tabou,4.423,-7.3528,300.9,4.86,96.0,light rain,77.0
780,noumea,-22.2763,166.4572,297.04,1.72,0.0,clear sky,100.0
781,plouzane,48.3833,-4.6167,283.15,6.17,90.0,overcast clouds,87.0
782,san quintin,30.4833,-115.95,291.47,1.8,2.0,clear sky,70.0
783,miyako,39.6367,141.9525,283.68,2.95,84.0,broken clouds,55.0
784,yugorsk,61.3133,63.3319,277.12,7.01,85.0,overcast clouds,60.0
785,bundaberg,-24.85,152.35,289.26,2.65,78.0,broken clouds,77.0
786,erzin,36.9559,36.2,294.26,7.6,15.0,few clouds,87.0
787,husainabad,24.5333,84.0167,302.7,0.94,80.0,broken clouds,41.0
788,ndago,-4.6,34.35,293.03,3.42,100.0,overcast clouds,68.0
789,maiduguri,11.8464,13.1603,313.94,3.37,27.0,scattered clouds,11.0
790,atar,20.5169,-13.0499,308.45,4.84,0.0,clear sky,10.0
791,asau,46.4333,26.4,288.71,0.59,71.0,broken clouds,29.0
792,omegna,45.8798,8.408,287.59,21.46,96.0,overcast clouds,62.0
793,vagur,61.4732,-6.8119,277.46,8.99,98.0,overcast clouds,76.0
794,umtata,-31.5889,28.7844,289.8,3.3,93.0,light rain,93.0
795,inta,66.0317,60.1659,272.18,7.71,100.0,light snow,93.0
796,lahad datu,5.0268,118.327,297.42,1.43,100.0,light rain,92.0
797,kaspiyskiy,45.3929,47.3707,289.22,5.72,0.0,clear sky,57.0
798,talara,-4.5772,-81.2719,298.15,8.23,90.0,overcast clouds,61.0
799,xihe,31.6864,113.4659,288.79,2.6,86.0,overcast clouds,97.0
800,san javier,37.8063,-0.8374,297.04,6.69,20.0,few clouds,53.0
801,molo,-0.2479,35.7374,286.59,1.59,99.0,moderate rain,95.0
802,luangwa,-15.6167,30.4167,294.09,1.05,2.0,clear sky,57.0
803,turgutlu,38.4953,27.6997,297.15,6.17,0.0,clear sky,46.0
804,mtsensk,53.2766,36.5733,282.38,5.1,100.0,moderate rain,92.0
805,tocopilla,-22.092,-70.1979,295.23,2.34,56.0,broken clouds,65.0
806,bireun,5.203,96.7009,299.03,2.27,100.0,overcast clouds,82.0
807,mao,39.8885,4.2658,292.15,6.17,0.0,clear sky,68.0
808,xuanhua,40.6103,115.0447,282.91,13.95,25.0,scattered clouds,62.0
809,pangai,-19.8,-174.35,298.56,2.4,44.0,light rain,80.0
810,esparta,15.7437,-87.1766,302.15,2.06,75.0,broken clouds,89.0
811,benjamin constant,-4.3831,-70.0311,297.15,1.54,90.0,heavy intensity rain,88.0
812,dinguiraye,11.3,-10.7167,310.74,3.74,51.0,broken clouds,19.0
813,gao,16.6362,1.637,315.54,3.02,94.0,overcast clouds,7.0
814,cheyenne,41.14,-104.8203,283.71,7.2,1.0,clear sky,61.0
815,chimore,-16.9833,-65.1333,288.53,0.49,100.0,overcast clouds,81.0
816,onega,63.9061,38.1404,279.44,6.4,100.0,overcast clouds,57.0
817,tlaltenango,19.1667,-98.3333,292.15,2.57,1.0,clear sky,52.0
818,coldwater,41.9403,-85.0005,284.82,1.54,90.0,overcast clouds,54.0
819,the valley,18.217,-63.0578,303.15,7.72,20.0,few clouds,61.0
820,beuningen,51.8608,5.7667,283.15,0.45,100.0,overcast clouds,66.0
821,tabuk,17.4189,121.4443,298.14,2.72,69.0,broken clouds,74.0
822,chapada dos guimaraes,-15.4606,-55.7497,291.15,5.14,90.0,overcast clouds,82.0
823,jesup,31.6074,-81.8854,300.37,5.66,1.0,clear sky,50.0
824,wanning,18.8003,110.3967,298.81,2.02,93.0,overcast clouds,87.0
825,mikuni,36.2171,136.1519,286.15,1.03,75.0,broken clouds,88.0
826,chase,50.8165,-119.6857,286.48,1.8,100.0,overcast clouds,76.0
827,saint-gilles,43.6766,4.4302,293.15,4.12,40.0,scattered clouds,64.0
828,panuco,22.05,-98.1667,301.15,5.14,75.0,broken clouds,74.0
829,zhigansk,66.7697,123.3711,273.79,3.32,100.0,overcast clouds,85.0
830,flinders,-34.5833,150.8552,291.48,3.13,99.0,light rain,98.0
831,trstena,49.361,19.6125,282.59,4.12,40.0,scattered clouds,53.0
832,puksoozero,62.5903,40.6066,278.11,5.36,100.0,overcast clouds,84.0
833,alice springs,-23.7,133.8833,285.15,2.25,64.0,broken clouds,37.0
834,marzuq,14.4,46.4667,300.56,4.25,69.0,broken clouds,49.0
835,coihaique,-45.5752,-72.0662,274.15,0.93,90.0,fog,100.0
836,wilmington,34.2257,-77.9447,294.26,3.6,90.0,overcast clouds,52.0
837,cumana,10.4635,-64.1775,295.15,7.72,82.0,broken clouds,100.0
838,ipixuna,-1.7625,-48.8043,299.15,1.03,75.0,broken clouds,83.0
839,jevargi,17.0167,76.7667,308.9,0.85,91.0,overcast clouds,24.0
840,nizwa,22.9333,57.5333,305.67,4.03,80.0,broken clouds,12.0
841,tahta,26.7693,31.5021,315.15,6.17,0.0,clear sky,7.0
842,bolivar,37.6145,-93.4105,290.37,5.81,16.0,few clouds,61.0
843,posevnaya,54.3006,83.3297,289.02,3.77,100.0,overcast clouds,58.0
844,stephenville,32.2207,-98.2023,296.48,1.54,1.0,clear sky,43.0
845,sorgun,39.8101,35.186,285.94,2.36,99.0,overcast clouds,77.0
846,jinxiang,27.4327,120.6062,291.7,1.86,100.0,light rain,73.0
847,kasongo-lunda,-6.4667,16.8167,296.93,0.87,99.0,overcast clouds,87.0
848,cravo norte,6.3017,-70.2041,302.26,3.49,98.0,overcast clouds,66.0
849,natal,-5.795,-35.2094,303.15,6.69,75.0,broken clouds,58.0
850,naze,28.3667,129.4833,292.75,2.97,100.0,overcast clouds,94.0
851,ereymentau,51.6199,73.1033,289.94,4.95,98.0,overcast clouds,34.0
852,anicuns,-16.4611,-49.9617,302.79,0.39,4.0,clear sky,34.0
853,khilok,51.3674,110.4676,273.9,1.49,95.0,snow,54.0
854,kendari,-3.945,122.4989,297.05,1.64,100.0,moderate rain,94.0
855,towada,40.6127,141.2067,284.82,0.89,3.0,clear sky,51.0
856,visby,57.6409,18.296,279.26,5.14,90.0,light intensity drizzle,93.0
857,zarubino,42.63,131.0922,281.42,1.78,38.0,scattered clouds,89.0
858,khani,41.9563,42.9566,292.15,6.69,0.0,clear sky,59.0
859,smoky lake,54.1169,-112.4686,290.15,4.12,29.0,scattered clouds,41.0
860,gracac,44.3006,15.8547,294.15,1.54,0.0,clear sky,40.0
861,gambela,8.25,34.5833,296.78,2.06,89.0,moderate rain,85.0
862,patea,-39.7583,174.4833,285.93,5.46,22.0,few clouds,96.0
863,point pedro,9.8167,80.2333,302.72,4.82,44.0,scattered clouds,73.0
864,antwerp,51.2199,4.4035,282.59,1.54,75.0,broken clouds,71.0
865,meulaboh,4.1363,96.1285,299.42,1.45,100.0,light rain,86.0
866,hanko,59.8333,22.95,280.93,0.45,99.0,overcast clouds,93.0
867,bandundu,-3.3167,17.3667,298.24,1.59,100.0,overcast clouds,85.0
868,sao jose de ribamar,-2.5619,-44.0542,302.15,2.57,75.0,broken clouds,79.0
869,dnestrovsc,46.6222,29.9133,291.15,5.0,40.0,scattered clouds,55.0
870,kaeo,-35.1,173.7833,284.26,2.24,100.0,overcast clouds,95.0
871,anju,39.6178,125.6647,285.18,5.57,8.0,clear sky,56.0
872,predivinsk,57.0669,93.4378,279.76,3.44,78.0,broken clouds,87.0
873,amga,60.8953,131.9608,273.11,1.96,100.0,overcast clouds,91.0
874,satinka,52.3792,41.6819,286.67,4.16,100.0,overcast clouds,69.0
875,ust-ishim,57.6935,71.1665,282.86,4.12,7.0,clear sky,49.0
876,zabol,32.25,67.25,290.74,4.49,14.0,few clouds,46.0
877,oranjestad,12.524,-70.027,303.15,9.26,40.0,scattered clouds,62.0
878,mocuba,-16.8392,36.9856,292.27,2.19,8.0,clear sky,78.0
879,bay roberts,47.5999,-53.2648,280.37,2.24,100.0,overcast clouds,79.0
880,sovetskiy,61.3614,63.5842,277.15,7.0,87.0,overcast clouds,61.0
881,severnoye,56.3491,78.3619,287.13,5.59,25.0,scattered clouds,58.0
882,halifax,44.6453,-63.5724,282.15,6.17,90.0,overcast clouds,87.0
883,druzhba,52.0428,33.9453,283.61,2.71,100.0,light rain,73.0
884,bindura,-17.3019,31.3306,292.04,0.45,0.0,clear sky,37.0
885,mae sot,16.7167,98.5667,297.24,0.6,100.0,overcast clouds,81.0
886,puerto el triunfo,13.2833,-88.55,303.15,2.29,20.0,few clouds,74.0
887,witu,-2.3889,40.4382,298.92,6.69,100.0,overcast clouds,81.0
888,eureka,40.8021,-124.1637,287.04,1.85,40.0,scattered clouds,82.0
889,saint-augustin,51.226,-58.6502,279.78,8.94,100.0,overcast clouds,73.0
890,monrovia,6.3005,-10.7969,303.15,4.12,75.0,broken clouds,66.0
891,atasu,48.6814,71.6433,288.53,2.28,100.0,light rain,74.0
892,biltine,14.5333,20.9167,313.37,5.45,12.0,few clouds,8.0
893,muriti,-1.9833,32.9167,298.15,3.6,20.0,few clouds,69.0
894,half moon bay,37.4636,-122.4286,289.26,5.66,75.0,mist,87.0
895,benjamin aceval,-24.9667,-57.5667,288.15,6.17,90.0,overcast clouds,82.0
896,lodja,-3.4833,23.4333,296.28,1.2,96.0,moderate rain,94.0
897,batamshinskiy,50.5594,58.2747,286.15,2.0,0.0,clear sky,41.0
898,shetpe,44.1667,52.1167,287.16,3.53,94.0,overcast clouds,41.0
899,juba,4.8517,31.5825,300.79,0.23,95.0,overcast clouds,62.0
900,menzelinsk,55.7271,53.1026,289.15,2.0,0.0,clear sky,39.0
901,xiaolingwei,32.0333,118.85,290.15,2.0,0.0,light rain,82.0
902,warrensburg,38.7628,-93.7361,287.15,6.69,40.0,scattered clouds,58.0
903,mwinilunga,-11.7358,24.4293,294.32,1.86,88.0,overcast clouds,67.0
904,santa cruz do rio pardo,-22.8989,-49.6325,303.67,4.57,0.0,clear sky,23.0
905,payo,-3.7508,103.6372,295.96,0.8,93.0,moderate rain,98.0
906,kyaikkami,16.08,97.5675,303.38,5.21,87.0,overcast clouds,76.0
907,vila velha,-20.3297,-40.2925,304.15,4.63,0.0,clear sky,51.0
908,shankargarh,25.1833,81.6167,306.22,2.11,43.0,scattered clouds,26.0
909,sistranda,63.7256,8.834,281.15,7.72,0.0,clear sky,31.0
910,hauterive,46.0901,3.4459,287.15,8.23,75.0,light intensity drizzle,67.0
911,kakching,24.4833,93.9833,291.71,0.79,100.0,overcast clouds,94.0
912,pemangkat,1.1667,108.9667,299.96,1.8,100.0,overcast clouds,77.0
913,shitanjing,39.2342,106.3439,281.43,0.89,0.0,clear sky,17.0
914,bonthe,7.5264,-12.505,303.71,5.53,91.0,overcast clouds,61.0
915,fukue,32.6881,128.8419,290.93,3.08,96.0,overcast clouds,57.0
916,carman,49.4992,-98.0016,285.15,4.12,58.0,broken clouds,30.0
917,hohhot,40.8106,111.6522,280.15,2.0,40.0,scattered clouds,57.0
918,sumenep,-7.0167,113.8667,300.2,2.13,99.0,overcast clouds,82.0
919,dzhankoy,45.7167,34.4,288.64,3.07,30.0,scattered clouds,52.0
920,smithers,54.7804,-127.1743,285.15,1.03,75.0,broken clouds,47.0
921,ca mau,9.1769,105.15,300.51,1.57,100.0,overcast clouds,75.0
922,puerto baquerizo moreno,-0.9,-89.6,299.15,6.17,75.0,broken clouds,78.0
923,jardim,-21.4803,-56.1381,288.79,3.41,100.0,overcast clouds,81.0
924,yarim,14.298,44.3779,285.48,1.1,100.0,overcast clouds,88.0
925,nizhniy chir,48.3597,43.0865,289.0,3.42,100.0,overcast clouds,55.0
926,kirkuk,35.4681,44.3922,303.72,4.18,77.0,broken clouds,16.0
927,zemio,5.0314,25.1361,296.56,1.58,100.0,overcast clouds,81.0
928,pisco,-13.7,-76.2167,292.15,2.57,90.0,overcast clouds,88.0
929,la grande,45.3246,-118.0877,293.71,2.68,40.0,scattered clouds,31.0
930,brownsburg,39.8434,-86.3978,287.15,3.09,90.0,overcast clouds,44.0
931,pingdingshan,33.7385,113.3012,292.65,3.81,91.0,light rain,78.0
932,kutahya,39.4242,29.9833,292.15,4.63,40.0,scattered clouds,48.0
933,trat,12.5,102.5,297.75,0.49,100.0,heavy intensity rain,92.0
934,humaita,-7.5061,-63.0208,305.76,1.86,12.0,few clouds,51.0
935,pierre,44.3683,-100.351,286.15,4.63,1.0,clear sky,54.0
936,maua,-23.6678,-46.4614,301.48,5.14,0.0,clear sky,36.0
937,jaranwala,31.3333,73.4333,299.17,2.5,74.0,broken clouds,41.0
938,ampanihy,-24.7,44.75,292.6,3.62,2.0,clear sky,66.0
939,laela,-8.5667,32.05,289.64,2.16,100.0,overcast clouds,91.0
940,bowen,-20.0167,148.2333,286.15,2.57,51.0,broken clouds,94.0
941,rio grande,-32.035,-52.0986,292.15,8.23,40.0,scattered clouds,52.0
942,astoria,46.1879,-123.8313,285.37,5.66,90.0,overcast clouds,71.0
943,bundu,23.1833,85.5833,299.08,2.15,58.0,broken clouds,62.0
944,pokosnoye,55.5258,101.0536,272.78,2.53,62.0,broken clouds,90.0
945,camabatela,-8.1881,15.375,291.63,0.56,100.0,overcast clouds,92.0
946,nueva loja,0.0847,-76.8828,302.15,2.06,75.0,broken clouds,74.0
947,santa barbara,34.7333,-120.0343,296.48,2.57,90.0,overcast clouds,93.0
948,abha,18.2164,42.5053,296.15,2.06,40.0,scattered clouds,26.0
949,quelimane,-17.8786,36.8883,297.15,2.57,20.0,few clouds,69.0
950,bucerias,20.75,-105.3333,299.15,1.03,1.0,clear sky,65.0
951,luzhou,28.8724,105.4405,290.35,1.31,52.0,light rain,91.0
952,voh,-20.9667,164.7,294.98,1.65,71.0,broken clouds,92.0
953,mantua,45.1667,10.7833,290.93,4.12,40.0,scattered clouds,59.0
954,nizhniy odes,63.6445,54.856,275.8,5.14,70.0,broken clouds,56.0
955,antalaha,-14.9003,50.2788,298.49,3.2,25.0,light rain,87.0
956,tateyama,34.9833,139.8667,290.37,0.63,100.0,overcast clouds,89.0
957,channel-port aux basques,47.5702,-59.1367,277.21,12.92,100.0,light rain,90.0
958,zhicheng,30.2956,111.5047,289.82,1.07,72.0,light rain,94.0
959,klos,41.5072,20.0851,295.15,0.51,0.0,clear sky,56.0
960,felanitx,39.4696,3.1483,295.93,5.66,40.0,scattered clouds,73.0
961,xai-xai,-25.0519,33.6442,293.67,3.14,84.0,broken clouds,77.0
962,baijiantan,45.6333,85.1833,298.94,2.07,15.0,few clouds,12.0
963,starokozache,46.3372,29.9853,291.15,5.0,40.0,scattered clouds,55.0
964,kralendijk,12.15,-68.2667,303.15,8.75,40.0,scattered clouds,66.0
965,maracaju,-21.6144,-55.1683,292.26,4.9,99.0,overcast clouds,69.0
966,mabaruma,8.2,-59.7833,300.96,1.86,72.0,broken clouds,77.0
967,puerto del rosario,28.5004,-13.8627,295.15,8.75,20.0,few clouds,64.0
968,pryazha,61.6926,33.6216,277.15,4.0,75.0,moderate rain,93.0
969,maceio,-9.6658,-35.7353,302.15,4.63,75.0,broken clouds,65.0
970,nileshwar,12.25,75.1,301.86,3.08,100.0,light rain,80.0
971,del rio,29.3627,-100.8968,300.15,6.69,1.0,clear sky,50.0
972,saint-francois,46.4154,3.9054,287.15,7.72,90.0,overcast clouds,72.0
973,les cayes,18.2,-73.75,301.69,5.45,26.0,scattered clouds,65.0
974,santa pola,38.1917,-0.5658,297.04,2.06,0.0,clear sky,64.0
975,pozo colorado,-23.4923,-58.7972,285.46,3.78,100.0,overcast clouds,94.0
976,beringovskiy,63.05,179.3167,265.11,1.3,81.0,broken clouds,96.0
977,severnyy,50.677,36.5532,291.15,4.0,0.0,light rain,36.0
978,santiago,-33.4569,-70.6483,295.37,1.22,0.0,clear sky,40.0
979,sambhar,26.9167,75.2,302.15,4.12,75.0,haze,37.0
980,qasigiannguit,68.8193,-51.1922,272.15,3.09,75.0,broken clouds,80.0
981,santa flavia,38.085,13.5351,293.71,1.34,100.0,light rain,77.0
982,tierralta,8.1736,-76.0592,303.03,0.97,81.0,broken clouds,67.0
983,fuling,29.7022,107.3919,288.83,0.06,57.0,light rain,94.0
984,tucuma,-0.1833,-50.05,301.61,1.06,90.0,light rain,73.0
985,khandyga,62.6667,135.6,274.07,1.61,100.0,overcast clouds,96.0
986,trenggalek,-8.05,111.7167,297.93,0.74,100.0,overcast clouds,94.0
987,yokadouma,3.5167,15.05,301.02,1.66,73.0,broken clouds,62.0
988,balsas,-7.5325,-46.0356,302.78,1.51,100.0,overcast clouds,57.0
989,thaba-tseka,-29.522,28.6084,285.32,1.38,77.0,broken clouds,49.0
990,deyang,31.1302,104.382,293.15,1.68,91.0,light rain,71.0
991,jacareacanga,-6.2222,-57.7528,305.96,1.51,49.0,scattered clouds,48.0
992,aurillac,44.9167,2.45,284.82,3.6,90.0,light rain,93.0
993,ishinomaki,38.4167,141.3,286.12,0.5,95.0,overcast clouds,73.0
994,bozoum,6.3193,16.3799,294.91,1.25,91.0,moderate rain,91.0
995,kresek,-6.1314,106.3797,300.93,1.54,20.0,haze,83.0
996,batagay-alyta,67.8006,130.4114,269.77,1.15,99.0,overcast clouds,98.0
997,sarankhola,22.3082,89.7897,300.3,3.69,36.0,scattered clouds,79.0
998,otane,-39.8833,176.6333,287.59,0.45,100.0,overcast clouds,94.0
999,balikpapan,-1.2675,116.8289,297.39,1.62,100.0,light rain,92.0
1000,neiafu,-18.65,-173.9833,297.15,1.66,40.0,scattered clouds,94.0
1001,villaviciosa,43.4813,-5.4357,293.15,2.13,100.0,overcast clouds,63.0
1002,feijo,-8.1642,-70.3536,302.89,1.68,100.0,overcast clouds,65.0
1003,puerto leguizamo,-0.1934,-74.7819,300.6,0.78,100.0,overcast clouds,83.0
1004,bereda,43.2686,-7.5406,292.59,4.92,100.0,overcast clouds,71.0
1005,dauphin,51.1494,-100.0502,283.15,6.69,1.0,clear sky,34.0
1006,mago,53.2514,140.1822,272.49,3.4,100.0,light snow,96.0
1007,alanya,36.5438,31.9998,295.15,2.06,0.0,clear sky,78.0
1008,dauriya,49.9333,116.8667,279.49,3.16,34.0,scattered clouds,60.0
1009,litovko,49.2361,135.1742,279.66,1.23,22.0,few clouds,86.0
1010,sao marcos,-28.9711,-51.0681,283.15,3.09,90.0,moderate rain,93.0
1011,chivay,-15.6383,-71.6011,285.47,1.1,100.0,overcast clouds,50.0
1012,cerro de pasco,-10.6833,-76.2667,281.93,3.79,82.0,broken clouds,57.0
1013,wladyslawowo,54.7909,18.4009,283.15,7.72,0.0,clear sky,37.0
1014,lozuvatka,48.0571,33.2858,287.15,3.0,20.0,few clouds,77.0
1015,newport,51.5877,-2.9984,286.15,1.54,92.0,overcast clouds,37.0
1016,livingstone,-17.8419,25.8543,296.07,3.81,34.0,scattered clouds,40.0
1017,pitanga,-24.7572,-51.7614,291.38,2.99,93.0,overcast clouds,84.0
1018,yuzhnyy,53.2542,83.6936,296.15,3.0,0.0,clear sky,21.0
1019,singaraja,-8.112,115.0882,299.77,1.77,91.0,overcast clouds,84.0
1020,porto santo,33.072,-16.3415,293.15,5.66,20.0,few clouds,64.0
1021,xichang,27.8964,102.2634,290.75,1.62,90.0,light rain,78.0
1022,visnes,59.3556,5.2242,282.15,2.06,40.0,scattered clouds,66.0
1023,datong,40.0936,113.2914,280.91,10.68,8.0,clear sky,49.0
1024,qinhuangdao,39.9317,119.5883,287.61,8.16,36.0,light rain,30.0
1025,safonovo,55.15,33.2167,280.79,5.81,81.0,moderate rain,80.0
1026,kongolo,-5.3833,27.0,297.2,0.86,100.0,light rain,87.0
1027,slave lake,55.2834,-114.769,285.15,3.6,1.0,clear sky,43.0
1028,madang,-5.2246,145.7966,298.53,2.5,92.0,overcast clouds,90.0
1029,lovozero,68.005,35.0117,272.55,5.69,99.0,overcast clouds,87.0
1030,lima,-12.0432,-77.0282,293.15,1.54,90.0,overcast clouds,83.0
1031,gainesville,29.6516,-82.3248,294.82,3.09,90.0,heavy intensity rain,88.0
1032,mnogovershinnyy,53.9353,139.9242,269.35,2.68,100.0,light snow,96.0
1033,kudahuvadhoo,2.6708,72.8944,302.71,2.79,66.0,broken clouds,69.0
1034,anshan,41.1236,122.99,285.22,7.14,49.0,light rain,75.0
1035,weston,26.1004,-80.3998,306.48,1.54,1.0,clear sky,45.0
1036,radlje ob dravi,46.6142,15.2264,283.15,5.14,75.0,broken clouds,71.0
1037,bouna,9.2667,-3.0,309.7,2.0,62.0,broken clouds,28.0
1038,fugen,47.35,11.85,287.15,2.06,90.0,overcast clouds,47.0
1039,prosec,49.8059,16.1162,284.82,2.24,99.0,overcast clouds,56.0
1040,gore,-46.1028,168.9436,280.93,0.89,15.0,few clouds,96.0
1041,manono,-7.3,27.4167,299.04,1.71,90.0,overcast clouds,68.0
1042,san jose,37.3394,-121.895,289.26,2.38,20.0,few clouds,67.0
1043,nevel,56.0209,29.9284,279.54,5.61,82.0,light rain,86.0
1044,cermik,38.1361,39.4493,294.15,7.72,75.0,broken clouds,43.0
1045,pringsewu,-5.3582,104.9744,296.85,1.02,60.0,broken clouds,96.0
1046,tall kayf,37.0833,41.0667,300.15,8.75,75.0,broken clouds,24.0
1047,tombouctou,20.0,-3.0,312.34,5.93,1.0,clear sky,11.0
1048,jalu,29.0331,21.5482,315.44,2.47,97.0,overcast clouds,5.0
1049,daan,33.0558,106.2958,290.22,1.34,100.0,light rain,86.0
1050,hvide sande,56.0045,8.1294,279.82,1.79,100.0,overcast clouds,76.0
1051,paciran,-6.8767,112.3761,299.58,1.82,98.0,overcast clouds,83.0
1052,krasnogorsk,55.8225,37.3181,284.26,10.0,75.0,light rain,82.0
1053,port-gentil,-0.7193,8.7815,301.15,2.57,20.0,few clouds,74.0
1054,wajir,1.7471,40.0573,307.15,7.04,75.0,broken clouds,43.0
1055,zuwarah,32.9312,12.082,293.76,13.92,63.0,broken clouds,66.0
1056,fivizzano,44.2383,10.126,289.26,3.09,75.0,broken clouds,71.0
1057,venice,27.0998,-82.4543,303.15,4.12,40.0,scattered clouds,79.0
1058,tamworth,52.634,-1.6959,283.15,3.58,88.0,overcast clouds,65.0
1059,hojby,55.3422,10.4368,282.15,5.66,75.0,broken clouds,61.0
1060,novikovo,51.1537,37.8879,288.47,3.68,83.0,light rain,64.0
1061,ratnagiri,16.9833,73.3,302.44,1.8,35.0,scattered clouds,75.0
1062,malanje,-9.5402,16.341,292.2,0.33,100.0,overcast clouds,92.0
1063,tankhoy,51.5528,105.1306,277.61,2.7,100.0,overcast clouds,97.0
1064,serenje,-13.2325,30.2352,288.33,2.41,10.0,clear sky,77.0
1065,karachi,24.9056,67.0822,302.15,4.12,40.0,scattered clouds,74.0
1066,kadoma,34.7333,135.5833,290.37,0.42,97.0,overcast clouds,50.0
1067,murgab,37.4966,61.9714,297.15,2.06,2.0,clear sky,50.0
1068,harnosand,62.6323,17.9379,277.15,4.12,90.0,drizzle,75.0
1069,tecoanapa,16.5167,-98.75,303.27,2.99,74.0,broken clouds,58.0
1070,thunder bay,48.4001,-89.3168,281.48,4.12,75.0,broken clouds,61.0
1071,makat,47.6469,53.3463,290.71,4.9,92.0,overcast clouds,30.0
1072,konstantinovka,49.6167,127.9833,278.72,1.35,4.0,clear sky,80.0
1073,marga,45.5,22.5167,286.05,0.45,99.0,overcast clouds,58.0
1074,santa isabel do rio negro,-0.4139,-65.0192,302.3,1.11,84.0,broken clouds,79.0
1075,mamontovo,52.7055,81.6244,295.53,5.65,99.0,overcast clouds,33.0
1076,kon tum,14.35,108.0,294.16,1.16,100.0,overcast clouds,93.0
1077,khandbari,27.3747,87.2039,291.88,1.61,43.0,scattered clouds,74.0
1078,holme,56.1138,10.1725,280.15,3.09,75.0,broken clouds,76.0
1079,zempoala,19.45,-96.4167,304.82,4.12,20.0,few clouds,58.0
1080,aiquile,-18.2041,-65.1807,288.82,3.03,98.0,overcast clouds,73.0
1081,gimli,50.6336,-96.9907,276.15,3.09,71.0,broken clouds,70.0
1082,stykkisholmur,65.0757,-22.7297,275.98,4.21,57.0,broken clouds,56.0
1083,el penon,8.9892,-73.9486,300.41,0.36,100.0,overcast clouds,83.0
1084,hokitika,-42.7167,170.9667,284.06,2.02,5.0,clear sky,78.0
1085,gorontalo,0.5412,123.0595,297.32,1.2,100.0,overcast clouds,94.0
1086,derazhnya,49.2692,27.4338,285.35,2.73,42.0,scattered clouds,52.0
1087,clovis,36.8252,-119.7029,297.59,4.63,1.0,clear sky,27.0
1088,linkoping,58.4109,15.6216,277.15,4.63,75.0,broken clouds,87.0
1089,floro,61.5996,5.0328,282.15,5.14,40.0,scattered clouds,66.0
1090,groningen,53.25,6.75,282.04,3.09,75.0,broken clouds,76.0
1091,kyra,49.5776,111.9753,274.35,1.61,43.0,scattered clouds,53.0
1092,teya,60.3778,92.6267,275.09,1.68,100.0,overcast clouds,94.0
1093,shellbrook,53.2168,-106.4011,280.15,3.09,20.0,few clouds,36.0
1094,whitehorse,60.7161,-135.0538,277.04,0.94,90.0,overcast clouds,60.0
1095,manta,-0.95,-80.7333,300.15,5.14,75.0,broken clouds,74.0
1096,saravan,39.7196,45.6483,291.15,3.09,40.0,scattered clouds,63.0
1097,porec,45.2258,13.5939,292.15,2.57,40.0,scattered clouds,52.0
1098,hami,42.8,93.45,295.85,0.56,66.0,broken clouds,7.0
1099,yara,20.2753,-76.9533,306.76,2.92,17.0,few clouds,40.0
1100,pundaguitan,6.3711,126.1689,301.1,6.4,100.0,light rain,78.0
1101,araguaina,-7.1911,-48.2072,301.63,0.76,98.0,overcast clouds,68.0
1102,rozkishne,48.5074,39.3004,288.9,3.48,100.0,overcast clouds,61.0
1103,iwanai,42.9744,140.5089,282.71,2.64,1.0,clear sky,57.0
1104,kloulklubed,7.0419,134.2556,300.15,6.17,90.0,overcast clouds,89.0
1105,vangazi,57.0936,24.5486,281.15,6.69,90.0,overcast clouds,71.0
1106,maloy,61.9353,5.1136,282.15,5.14,40.0,scattered clouds,66.0
1107,uglegorsk,49.0833,142.0333,277.73,5.35,64.0,broken clouds,86.0
1108,bocas del toro,9.3333,-82.25,295.37,2.03,78.0,broken clouds,63.0
1109,huainan,32.6264,116.9969,291.88,4.33,100.0,overcast clouds,79.0
1110,barkhan,29.8977,69.5256,296.33,0.48,86.0,overcast clouds,37.0
1111,lazaro cardenas,17.9583,-102.2,302.84,2.81,7.0,clear sky,45.0
1112,pandan,14.0453,124.1694,299.82,4.32,79.0,broken clouds,89.0
1113,campoverde,-8.4753,-74.8058,302.15,4.12,75.0,broken clouds,70.0
1114,vulcan,45.3833,23.2667,285.78,1.38,95.0,overcast clouds,54.0
1115,kuching,1.55,110.3333,299.15,2.06,20.0,moderate rain,89.0
1116,tahe,52.3333,124.7333,274.65,1.54,20.0,few clouds,92.0
1117,xinzhi,36.4989,111.7047,287.25,5.85,0.0,clear sky,11.0
1118,coromandel,-18.4733,-47.2003,301.62,3.55,4.0,clear sky,21.0
1119,mingshui,36.7167,117.5,294.15,8.0,0.0,clear sky,16.0
1120,troitsko-pechorsk,62.7084,56.1964,276.73,3.84,52.0,broken clouds,57.0
1121,minab,27.1467,57.0801,305.15,4.12,0.0,clear sky,48.0
1122,lagunillas,10.1301,-71.2595,301.11,3.76,100.0,overcast clouds,77.0
1123,tarakan,3.3,117.6333,297.43,3.7,100.0,overcast clouds,91.0
1124,west odessa,31.8424,-102.4988,294.82,7.2,1.0,clear sky,46.0
1125,miramar,25.9873,-80.2323,306.48,1.54,1.0,clear sky,45.0
1126,ponta delgada,37.7333,-25.6667,292.15,4.63,40.0,scattered clouds,82.0
1127,mogok,22.9167,96.5,293.15,0.95,15.0,few clouds,64.0
1128,ouango,4.3133,22.5552,296.68,0.6,100.0,overcast clouds,87.0
1129,keti bandar,24.1447,67.4497,302.13,7.71,2.0,clear sky,73.0
1130,moose jaw,50.4001,-105.5344,287.15,3.6,4.0,clear sky,18.0
1131,kormilovka,55.0026,74.1028,288.15,6.0,16.0,few clouds,29.0
1132,ambanja,-13.6833,48.45,300.15,1.03,20.0,moderate rain,92.0
1133,yershov,51.3513,48.2766,288.46,2.96,39.0,scattered clouds,48.0
1134,villanueva de cordoba,38.3228,-4.6287,303.15,4.12,0.0,clear sky,26.0
1135,mandera,3.9366,41.867,304.22,5.05,100.0,overcast clouds,52.0
1136,poya,-21.35,165.15,295.46,1.73,92.0,overcast clouds,88.0
1137,reconquista,-29.15,-59.65,289.12,4.15,15.0,few clouds,44.0
1138,brasilia de minas,-16.2064,-44.4333,305.09,0.56,29.0,scattered clouds,28.0
1139,wonthaggi,-38.6044,145.5913,287.04,2.39,45.0,scattered clouds,94.0
1140,namalenga,-10.95,39.1,293.73,0.8,73.0,broken clouds,83.0
1141,oshnaviyeh,37.0397,45.0983,289.15,2.06,75.0,broken clouds,63.0
1142,altea,38.5989,-0.0514,295.93,4.69,3.0,clear sky,91.0
1143,abay,49.6311,72.8539,293.15,3.0,20.0,few clouds,34.0
1144,baruun-urt,46.6806,113.2792,278.24,6.48,46.0,scattered clouds,51.0
1145,black river,18.0264,-77.8487,303.15,8.23,20.0,few clouds,62.0
1146,beaverlodge,55.2166,-119.4361,284.15,4.12,75.0,broken clouds,40.0
1147,nytva,57.9404,55.334,284.15,2.0,0.0,clear sky,37.0
1148,sungaipenuh,-2.0833,101.3833,292.02,0.92,100.0,overcast clouds,97.0
1149,santa vitoria do palmar,-33.5189,-53.3681,289.01,5.13,2.0,clear sky,52.0
1150,camargo,27.6667,-105.1667,299.72,3.89,27.0,scattered clouds,34.0
1151,burnie,-41.0667,145.9167,287.59,4.02,100.0,overcast clouds,93.0
1152,te anau,-45.4167,167.7167,278.79,0.79,13.0,few clouds,94.0
1153,homer,59.6425,-151.5483,277.04,2.06,90.0,overcast clouds,87.0
1154,nizhniy kuranakh,58.8353,125.4869,273.96,0.99,100.0,light snow,99.0
1155,bonanza,14.0289,-84.591,303.04,1.39,100.0,overcast clouds,48.0
1156,eregli,37.5133,34.0467,288.94,2.96,84.0,broken clouds,65.0
1157,tadine,-21.55,167.8833,296.31,2.55,26.0,scattered clouds,82.0
1158,angoche,-16.2325,39.9086,297.84,5.75,40.0,scattered clouds,57.0
1159,kibaya,-5.3,36.5667,289.11,1.98,100.0,overcast clouds,84.0
1160,anito,12.4497,125.2886,299.47,3.78,100.0,overcast clouds,91.0
1161,imeni poliny osipenko,52.4201,136.4853,272.44,4.88,100.0,overcast clouds,81.0
1162,yinchuan,38.4681,106.2731,285.65,3.51,0.0,clear sky,12.0
1163,almenara,-16.1836,-40.6944,303.64,1.37,100.0,overcast clouds,44.0
1164,nanakuli,21.3906,-158.1547,295.15,2.06,1.0,clear sky,73.0
1165,baley,51.6,116.6333,277.94,1.5,100.0,overcast clouds,71.0
1166,banjar,-8.19,114.9675,301.15,4.12,20.0,few clouds,83.0
1167,srandakan,-7.9386,110.2506,299.02,2.28,89.0,overcast clouds,86.0
1168,gorom-gorom,14.4439,-0.2361,313.39,3.87,65.0,broken clouds,16.0
1169,katangli,51.7102,143.2326,274.17,6.05,100.0,overcast clouds,90.0
1170,wattegama,6.7989,81.4808,299.15,2.06,40.0,scattered clouds,100.0
1171,villa corzo,16.1667,-93.25,298.15,1.27,90.0,mist,78.0
1172,aljezur,37.3191,-8.8033,293.2,6.12,4.0,clear sky,60.0
1173,birao,10.2849,22.7882,304.52,3.89,93.0,overcast clouds,42.0
1174,am timan,11.0297,20.2827,306.7,4.01,66.0,broken clouds,32.0
1175,shelburne,44.0787,-80.2041,283.71,4.41,40.0,scattered clouds,60.0
1176,axim,4.8699,-2.2405,301.97,5.09,77.0,light rain,72.0
1177,moen,69.1304,18.6123,278.15,3.6,20.0,few clouds,42.0
1178,taltal,-25.4,-70.4833,294.81,2.26,7.0,clear sky,53.0
1179,tokmak,47.2514,35.7058,289.77,3.24,49.0,scattered clouds,49.0
1180,kokstad,-30.5472,29.4241,285.72,1.59,11.0,light rain,88.0
1181,leh,34.1667,77.5833,282.45,1.93,47.0,light rain,35.0
1182,killybegs,54.6333,-8.45,282.15,6.17,20.0,few clouds,53.0
1183,uni,57.7535,51.4923,282.12,2.12,50.0,scattered clouds,75.0
1184,lanxi,29.2195,119.477,291.63,0.71,100.0,light rain,96.0
1185,juneau,58.3019,-134.4197,281.15,3.09,90.0,light rain,76.0
1186,tanout,14.9709,8.8879,313.38,4.26,4.0,clear sky,5.0
1187,sandy bay,-42.913,147.3532,287.04,2.06,15.0,mist,100.0
1188,teguldet,57.3064,88.1667,286.4,2.48,44.0,scattered clouds,72.0
1189,wichita falls,33.9137,-98.4934,295.37,3.6,75.0,broken clouds,40.0
1190,pahalgam,34.0333,75.3333,280.27,2.75,100.0,overcast clouds,81.0
1191,kojori,41.6594,44.7025,288.15,2.06,0.0,clear sky,77.0
1192,harij,23.7,71.9,306.5,3.89,0.0,clear sky,25.0
1193,lewiston,44.1003,-70.2148,287.59,8.75,75.0,broken clouds,54.0
1194,berezovyy,51.6667,135.7,271.54,0.59,100.0,overcast clouds,99.0
1195,sussex,41.1834,-74.6663,287.59,3.09,1.0,clear sky,44.0
1196,sokolovyy,51.5686,45.8331,285.87,3.75,100.0,overcast clouds,60.0
1197,timmins,48.4669,-81.3331,280.15,3.6,75.0,broken clouds,49.0
1198,buluang,13.3068,123.3425,298.22,1.29,41.0,scattered clouds,92.0
1199,majene,-3.5403,118.9707,297.89,0.78,100.0,light rain,93.0
1200,mattawa,46.7379,-119.9028,294.26,2.67,1.0,clear sky,39.0
1201,alihe,50.5667,123.7167,276.01,1.04,5.0,clear sky,80.0
1202,finschhafen,-6.6024,147.8681,299.22,1.98,55.0,broken clouds,82.0
1203,marrakesh,31.6315,-8.0083,305.15,4.63,40.0,scattered clouds,25.0
1204,okahandja,-21.9833,16.9167,287.04,3.09,60.0,broken clouds,100.0
1205,aras,42.5617,-2.356,300.15,5.14,20.0,few clouds,24.0
1206,andover,51.2083,-1.4825,285.15,6.17,0.0,clear sky,35.0
1207,cardston,49.2,-113.3019,286.15,3.6,100.0,overcast clouds,44.0
1208,strezhevoy,60.7333,77.5889,280.15,2.0,40.0,scattered clouds,76.0
1209,tambura,5.6,27.4667,297.66,1.5,95.0,overcast clouds,73.0
1210,amlagora,22.8333,87.3333,299.83,5.36,71.0,broken clouds,64.0
1211,annau,37.8876,58.516,297.15,7.2,75.0,broken clouds,50.0
1212,koboko,3.4136,30.9599,292.93,1.82,96.0,moderate rain,87.0
1213,salamiyah,35.0113,37.0532,293.61,10.77,47.0,light rain,53.0
1214,kodinsk,58.6881,99.1844,270.09,0.57,10.0,clear sky,95.0
1215,yerofey pavlovich,53.9667,121.9667,273.66,1.94,20.0,few clouds,88.0
1216,askiz,53.1319,90.5264,287.64,1.11,63.0,broken clouds,62.0
1217,khor,47.8861,134.9464,280.53,2.12,50.0,scattered clouds,71.0
1218,shirokiy,49.758,129.523,279.31,2.55,69.0,broken clouds,79.0
1219,chancay,-11.5714,-77.2672,293.15,1.54,90.0,overcast clouds,83.0
1220,oktyabrskoye,43.0645,44.7417,288.15,7.0,9.0,clear sky,55.0
1221,conakry,9.538,-13.6773,304.15,4.12,75.0,broken clouds,42.0
1222,mayumba,-3.432,10.6554,299.48,2.25,99.0,overcast clouds,75.0
1223,liberty,31.8335,-81.5004,299.26,5.66,1.0,clear sky,50.0
1224,linhares,-19.3911,-40.0722,303.81,1.84,0.0,clear sky,46.0
1225,barranca,-10.75,-77.7667,294.32,3.93,95.0,overcast clouds,74.0
1226,tanete,-3.9443,119.7848,297.42,0.55,100.0,overcast clouds,95.0
1227,shu,43.5983,73.7614,289.51,5.24,100.0,overcast clouds,90.0
1228,kemalpasa,38.4262,27.4173,298.71,6.17,0.0,clear sky,46.0
1229,walvis bay,-22.9575,14.5053,295.15,3.6,0.0,clear sky,53.0
1230,belyy yar,53.6039,91.3903,283.15,1.0,0.0,clear sky,66.0
1231,rochester,43.1548,-77.6156,285.37,3.09,20.0,few clouds,46.0
1232,sandominic,46.584,25.7803,288.71,2.74,92.0,overcast clouds,29.0
1233,enderby,52.5878,-1.2062,283.15,0.89,82.0,broken clouds,53.0
1234,sauda,59.6506,6.3542,281.15,2.06,40.0,scattered clouds,66.0
1235,vernon,50.2581,-119.2691,286.15,1.03,100.0,overcast clouds,47.0
1236,makow mazowiecki,52.8649,21.1005,285.93,6.13,55.0,broken clouds,73.0
1237,ambunti,-4.2365,142.8448,296.99,0.95,93.0,overcast clouds,99.0
1238,balakliya,49.4627,36.8595,292.15,4.0,0.0,light rain,34.0
1239,ageo,35.9697,139.5886,293.71,2.66,99.0,overcast clouds,61.0
1240,goose creek,32.981,-80.0326,298.15,2.57,20.0,few clouds,50.0
1241,ashland,40.8167,-82.2665,287.04,0.45,96.0,overcast clouds,60.0
1242,billings,45.7833,-108.5007,285.93,1.54,20.0,few clouds,53.0
1243,usinsk,65.9939,57.5281,273.74,7.68,100.0,overcast clouds,85.0
1244,berbera,10.4396,45.0143,303.73,2.09,92.0,overcast clouds,67.0
1245,green valley,31.8543,-110.9937,302.04,0.45,3.0,clear sky,17.0
1246,mapiri,-15.25,-68.1667,294.58,0.93,100.0,overcast clouds,96.0
1247,tallahassee,30.4383,-84.2807,299.82,1.9,75.0,broken clouds,61.0
1248,garango,11.8,-0.5506,309.37,3.5,73.0,broken clouds,26.0
1249,verkhniy fiagdon,42.8333,44.3053,288.15,7.0,34.0,scattered clouds,55.0
1250,hyderabad,17.3753,78.4744,303.15,5.32,20.0,few clouds,51.0
1251,okha,53.5739,142.9478,271.51,3.02,98.0,light snow,98.0
1252,vokhtoga,58.8147,41.0461,285.63,7.05,96.0,light rain,74.0
1253,sokolo,14.7328,-6.1219,313.06,1.49,31.0,scattered clouds,17.0
1254,conner,17.7964,121.3275,297.57,1.37,78.0,broken clouds,77.0
1255,stornoway,58.2093,-6.3865,278.15,8.23,75.0,moderate rain,93.0
1256,yarmouth,41.7057,-70.2286,289.15,6.69,1.0,clear sky,48.0
1257,sabzevar,36.2126,57.6819,298.15,2.28,40.0,scattered clouds,53.0
1258,sarangani,5.4033,125.4636,301.52,9.59,100.0,overcast clouds,77.0
1259,amahai,-3.3333,128.9167,299.42,1.71,100.0,overcast clouds,86.0
1260,palmas,-10.2128,-48.3603,304.15,2.57,0.0,clear sky,62.0
1261,shunyi,40.125,116.6453,288.71,10.0,5.0,dust,26.0
1262,chapleau,47.8405,-83.4034,279.15,3.6,90.0,overcast clouds,52.0
1263,verkhnyaya inta,65.9811,60.3094,271.99,7.73,100.0,light snow,95.0
1264,biak,-0.9131,122.8766,298.21,1.56,72.0,broken clouds,85.0
1265,goldsboro,35.3849,-77.9928,292.59,5.14,75.0,broken clouds,52.0
1266,vorukh,39.8494,70.5838,288.52,0.94,100.0,overcast clouds,77.0
1267,chingola,-12.529,27.8838,292.35,1.12,58.0,broken clouds,71.0
1268,pontes e lacerda,-15.2261,-59.3353,297.16,3.5,77.0,broken clouds,51.0
1269,aquiraz,-3.9014,-38.3911,302.15,4.12,75.0,broken clouds,70.0
1270,devils lake,48.1128,-98.8651,286.15,7.72,20.0,few clouds,24.0
1271,monte patria,-30.6919,-70.9467,298.71,1.09,0.0,clear sky,10.0
1272,camacupa,-12.0167,17.4833,291.69,2.21,94.0,moderate rain,91.0
1273,mitu,1.1983,-70.1733,301.46,0.36,96.0,overcast clouds,78.0
1274,port-cartier,50.0334,-66.8654,274.26,3.6,100.0,snow,100.0
1275,rach gia,10.0167,105.0833,299.15,1.03,75.0,light rain,94.0
1276,sept-iles,50.2001,-66.3821,274.26,3.6,100.0,moderate rain,100.0
1277,khaniotis,39.9991,23.58,296.48,1.79,53.0,broken clouds,33.0
1278,siniscola,40.5719,9.6922,295.15,3.6,0.0,clear sky,49.0
1279,muhos,64.808,25.9931,276.48,6.17,75.0,broken clouds,48.0
1280,glace bay,46.1969,-59.957,277.59,9.26,90.0,light rain,93.0
1281,polyarnyy,69.1989,33.4478,273.15,4.0,75.0,broken clouds,74.0
1282,amuntai,-2.4177,115.2494,296.82,0.68,100.0,overcast clouds,98.0
1283,makaryev,57.8797,43.8069,286.52,6.86,100.0,overcast clouds,69.0
1284,amapa,1.0,-52.0,303.98,1.03,92.0,overcast clouds,57.0
1285,ponazyrevo,58.3578,46.3142,285.63,3.56,100.0,overcast clouds,76.0
1286,xam nua,20.4197,104.0439,292.79,0.99,92.0,overcast clouds,95.0
1287,merauke,-8.4667,140.3333,297.8,5.74,99.0,overcast clouds,84.0
1288,jining,35.405,116.5814,292.87,5.62,55.0,broken clouds,21.0
1289,narsingi,18.0333,78.4333,303.15,1.76,20.0,few clouds,51.0
1290,oleksandrivka,48.9634,32.2349,282.91,0.66,100.0,overcast clouds,85.0
1291,champasak,14.75,106.0,296.19,0.97,100.0,overcast clouds,95.0
1292,springbok,-29.6643,17.8865,288.74,3.71,0.0,clear sky,47.0
1293,sisimiut,66.9395,-53.6735,273.84,4.02,25.0,scattered clouds,71.0
1294,nacala,-14.5428,40.6728,295.15,3.09,40.0,scattered clouds,68.0
1295,zeya,53.75,127.2667,276.93,1.15,100.0,overcast clouds,95.0
1296,slantsy,59.1182,28.0914,280.45,2.97,100.0,light rain,89.0
1297,tena,-0.9833,-77.8167,304.15,1.54,40.0,light rain,58.0
1298,pouembout,-21.1333,164.9,295.24,1.72,84.0,broken clouds,91.0
1299,mangan,27.5167,88.5333,292.87,1.14,85.0,overcast clouds,82.0
1300,spirit river,55.7833,-118.8361,286.15,7.72,72.0,broken clouds,38.0
1301,carbonia,39.1672,8.5222,296.15,2.06,20.0,few clouds,43.0
1302,high prairie,55.4334,-116.4858,287.15,6.69,100.0,overcast clouds,33.0
1303,rampura,30.25,75.2333,305.12,6.58,98.0,overcast clouds,26.0
1304,omboue,-1.5746,9.2618,298.92,0.61,100.0,overcast clouds,84.0
1305,auburn,47.3073,-122.2284,289.26,6.69,90.0,overcast clouds,58.0
1306,kawalu,-7.3817,108.2082,296.07,0.09,94.0,overcast clouds,97.0
1307,raga,8.4596,25.678,301.03,3.81,95.0,light rain,58.0
1308,gallup,35.5281,-108.7426,294.82,3.09,1.0,clear sky,11.0
1309,corowa,-36.0333,146.3833,286.48,2.06,44.0,scattered clouds,100.0
1310,chapadinha,-3.7417,-43.3603,300.35,1.08,75.0,broken clouds,85.0
1311,sorrento,40.626,14.3744,293.15,2.06,0.0,clear sky,73.0
1312,bezhanitsy,56.9767,29.8907,279.15,6.07,99.0,light rain,88.0
1313,macae,-22.3708,-41.7869,301.15,3.09,20.0,few clouds,74.0
1314,namtsy,62.7161,129.6658,276.15,2.0,0.0,clear sky,65.0
1315,wenling,28.3669,121.36,293.71,2.02,99.0,light rain,60.0
1316,labrea,-7.2586,-64.7981,304.01,1.67,31.0,scattered clouds,59.0
1317,orlik,52.5178,99.825,272.87,1.55,22.0,few clouds,91.0
1318,abnub,27.2696,31.1511,312.15,7.72,0.0,clear sky,17.0
1319,saint johnsbury,44.4192,-72.0151,284.15,5.53,100.0,overcast clouds,50.0
1320,rincon,32.296,-81.2354,300.15,5.14,20.0,few clouds,50.0
